"Number","Name","Nat","Pos","Height","Weight","Date.of.Birth","Birth.Place","Previous.Club","Team","League","lat","long"
1,"","","",NA,NA,"","","","Atalanta","Italy",NA,NA
2,"Rafael Tolói","BRA","D",1.85,75,"10-10-90","Gloria d'Oeste","São Paulo","Atalanta","Italy",-15.7680093,-58.3107593
3,"Mattia Caldara","ITA","D",1.87,80,"05-05-94","Scanzorosciate","Milan","Atalanta","Italy",45.710782,9.735055
4,"Boško Šutalo","CRO","D",1.88,81,"01-01-00","Metkovic","Osijek","Atalanta","Italy",43.0551448,17.650014
5,"Adrien Tameze","FRA","M",1.8,78,"04-11-94","Lille","Nice","Atalanta","Italy",50.6365654,3.0635282
6,"José Luis Palomino","ARG","D",1.88,87,"05-01-90","San Miguel de Tucumán","Ludogorets Razgrad","Atalanta","Italy",-26.8303703,-65.2038133
7,"Lennart Czyborra","GER","D",1.78,72,"03-05-99","Berlin","Heracles Almelo","Atalanta","Italy",52.5170365,13.3888599
8,"Robin Gosens","GER","M",1.83,76,"05-07-94","Emmerich","Heracles Almelo","Atalanta","Italy",51.8322137,6.2428283
9,"Luis Muriel","COL","F",1.79,79,"16-04-91","Santo Tomás","Sevilla","Atalanta","Italy",10.7301914,-74.8013325517066
10,"Alejandro Gómez","ARG","F",1.67,68,"15-02-88","Capital Federal","Metalist Kharkiv","Atalanta","Italy",-34.6075682,-58.4370894
11,"Remo Freuler","SUI","M",1.8,80,"15-04-92","Ennenda","Luzern","Atalanta","Italy",47.033828,9.0779218
12,"","","",NA,NA,"","","","Atalanta","Italy",NA,NA
13,"","","",NA,NA,"","","","Atalanta","Italy",NA,NA
14,"","","",NA,NA,"","","","Atalanta","Italy",NA,NA
15,"Marten de Roon","NED","M",1.85,76,"29-03-91","Zwijndrecht","Middlesbrough","Atalanta","Italy",51.82052005,4.62573151837953
16,"","","",NA,NA,"","","","Atalanta","Italy",NA,NA
17,"Roberto Piccoli","ITA","F",1.86,77,"27-01-01","Bergamo","None","Atalanta","Italy",45.7566557,9.75421920086225
18,"Ruslan Malinovskyi","UKR","M",1.81,79,"04-05-93","Zhytomyr","KRC Genk","Atalanta","Italy",50.2598298,28.6692345
19,"Berat Djimsiti","ALB","D",1.9,82,"19-02-93","Zürich","Zürich","Atalanta","Italy",47.3723941,8.5423328
20,"Jacopo Da Riva","ITA","M",1.87,75,"27-10-00","Montebelluna","None","Atalanta","Italy",45.7759956,12.0450646
21,"Timoty Castagne","BEL","D",1.8,80,"05-12-95","Aarlen","KRC Genk","Atalanta","Italy",49.6834601,5.8167711
22,"Raoul Bellanova","ITA","D",1.85,78,"16-05-00","Rho","Bordeaux","Atalanta","Italy",45.5285317,9.0401796
23,"","","",NA,NA,"","","","Atalanta","Italy",NA,NA
24,"","","",NA,NA,"","","","Atalanta","Italy",NA,NA
25,"","","",NA,NA,"","","","Atalanta","Italy",NA,NA
26,"","","",NA,NA,"","","","Atalanta","Italy",NA,NA
27,"","","",NA,NA,"","","","Atalanta","Italy",NA,NA
28,"","","",NA,NA,"","","","Atalanta","Italy",NA,NA
29,"","","",NA,NA,"","","","Atalanta","Italy",NA,NA
30,"","","",NA,NA,"","","","Atalanta","Italy",NA,NA
31,"Francesco Rossi","ITA","G",1.93,83,"27-04-91","Merate","None","Atalanta","Italy",45.698679,9.411648
32,"","","",NA,NA,"","","","Atalanta","Italy",NA,NA
33,"Hans Hateboer","NED","D",1.85,72,"09-01-94","Beerta","FC Groningen","Atalanta","Italy",53.16637495,7.11240799832288
34,"","","",NA,NA,"","","","Atalanta","Italy",NA,NA
35,"","","",NA,NA,"","","","Atalanta","Italy",NA,NA
36,"","","",NA,NA,"","","","Atalanta","Italy",NA,NA
37,"","","",NA,NA,"","","","Atalanta","Italy",NA,NA
38,"","","",NA,NA,"","","","Atalanta","Italy",NA,NA
39,"","","",NA,NA,"","","","Atalanta","Italy",NA,NA
40,"","","",NA,NA,"","","","Atalanta","Italy",NA,NA
55,"Caleb Okoli","NGA","D",1.89,69,"13-07-01","Vicenza","None","Atalanta","Italy",45.63485905,11.4063542566025
57,"Marco Sportiello","ITA","G",1.92,86,"10-05-92","Desio","Poggibonsi","Atalanta","Italy",45.6183103,9.2081245
72,"Josip Ilicic","SVN","F",1.9,79,"29-01-88","Kranj","Fiorentina","Atalanta","Italy",46.2432635,14.3549501
79,"Amad Traoré","CIV","F",1.73,NA,"11-07-02","Abidjan","None","Atalanta","Italy",5.320357,-4.016107
87,"David Heidenreich","CZE","D",1.82,75,"24-06-00","Ústí nad Labem","Teplice","Atalanta","Italy",50.6603327,14.0381357
88,"Mario Pašalic","CRO","M",1.88,82,"09-02-95","Mainz","Chelsea","Atalanta","Italy",50.0012314,8.2762513
90,"Ebrima Colley","GAM","F",NA,NA,"01-02-00","Serrekunda","None","Atalanta","Italy",13.438762,-16.674807
91,"Duván Zapata","COL","F",1.89,88,"01-04-91","Cali","Sampdoria","Atalanta","Italy",3.4517923,-76.5324943
95,"Pierluigi Gollini","ITA","G",1.94,94,"18-03-95","Bologna","Aston Villa","Atalanta","Italy",44.4936714,11.3430347
1,"Angelo da Costa","BRA","G",1.86,81,"12-11-83","São Bernardo do Campo","Sampdoria","Bologna","Italy",-23.7080345,-46.5506747
2,"","","",NA,NA,"","","","Bologna","Italy",NA,NA
3,"","","",NA,NA,"","","","Bologna","Italy",NA,NA
4,"Stefano Denswil","NED","D",1.85,76,"07-05-93","Zaandam","Club Brugge","Bologna","Italy",52.45030615,4.81594421954726
5,"Gary Medel","CHI","D",1.71,76,"03-08-87","Santiago","Besiktas","Bologna","Italy",9.8694792,-83.7980749
6,"Federico Bonini","ITA","D",1.86,74,"06-08-01","Massa","Virtus Entella","Bologna","Italy",44.0359323,10.1395519
7,"Riccardo Orsolini","ITA","F",1.83,73,"24-01-97","Ascoli Piceno","Juventus","Bologna","Italy",42.8834204,13.539593040686
8,"Nicolás Domínguez","ARG","M",1.79,73,"28-06-98","Haedo","Vélez Sarsfield","Bologna","Italy",-34.6431369,-58.5947185
9,"Federico Santander","PAR","F",1.87,84,"04-06-91","San Lorenzo","FC København","Bologna","Italy",42.3832108,9.287966
10,"Nicola Sansone","ITA","F",1.73,63,"10-09-91","Munich","Villarreal","Bologna","Italy",48.1371079,11.5753822
11,"Ladislav Krejcí","CZE","M",1.78,70,"05-07-92","Prague","Sparta Prague","Bologna","Italy",50.0874654,14.4212535
12,"Marco Molla","ITA","G",1.92,NA,"19-06-02","Sesto Fiorentino","Prato","Bologna","Italy",43.831721,11.1992239
13,"Mattia Bani","ITA","D",1.88,81,"10-12-93","Borgo San Lorenzo","Chievo Verona","Bologna","Italy",43.954248,11.3864681
14,"Takehiro Tomiyasu","JPN","D",1.85,70,"05-11-98","Fukuoka","Sint-Truiden","Bologna","Italy",33.6251241,130.6180016
15,"Ibrahima Mbaye","SEN","D",1.87,70,"19-11-94","Guédiawaye","Internazionale","Bologna","Italy",14.7771207,-17.390071
16,"Andrea Poli","ITA","M",1.81,77,"29-09-89","Vittorio Veneto","Milan","Bologna","Italy",45.9897133,12.296477
17,"Andreas Skov Olsen","DEN","F",1.88,75,"29-12-99","Hillerød","FC Nordsjælland","Bologna","Italy",55.9285735,12.3063909
18,"","","",NA,NA,"","","","Bologna","Italy",NA,NA
19,"","","",NA,NA,"","","","Bologna","Italy",NA,NA
20,"Sebastian Breza","CAN","G",1.96,87,"15-03-98","Ottawa","Potenza","Bologna","Italy",45.421106,-75.690308
21,"Roberto Soriano","ITA","M",1.82,76,"08-02-91","Darmstadt","Villarreal","Bologna","Italy",49.872775,8.651177
22,"","","",NA,NA,"","","","Bologna","Italy",NA,NA
23,"Danilo","BRA","D",1.85,75,"10-05-84","São Bernardo do Campo","Udinese","Bologna","Italy",-23.7080345,-46.5506747
24,"Rodrigo Palacio","ARG","F",1.75,70,"05-02-82","Bahía Blanca","Internazionale","Bologna","Italy",-38.7182364,-62.266245
25,"Gabriele Corbo","ITA","D",1.85,76,"11-01-00","Naples","Spezia","Bologna","Italy",40.8359336,14.2487826
26,"Musa Jawara","GAM","M",1.7,60,"26-12-01","Tujereng","Chievo Verona","Bologna","Italy",13.317927,-16.788919
27,"","","",NA,NA,"","","","Bologna","Italy",NA,NA
28,"Lukasz Skorupski","POL","G",1.87,84,"05-05-91","Zabrze","Roma","Bologna","Italy",50.3086154,18.7863749
29,"Gianmarco Cangiano","ITA","F",1.67,62,"16-11-01","Naples","Roma","Bologna","Italy",40.8359336,14.2487826
30,"Jerdy Schouten","NED","M",1.85,72,"12-01-97","Hellevoetsluis","Excelsior","Bologna","Italy",51.8433469,4.12130277209192
31,"","","",NA,NA,"","","","Bologna","Italy",NA,NA
32,"Mattias Svanberg","SWE","M",1.85,77,"05-01-99","Malmö","Malmö FF","Bologna","Italy",55.6052931,13.0001566
33,"","","",NA,NA,"","","","Bologna","Italy",NA,NA
34,"Andri Fannar Baldursson","ISL","M",NA,NA,"10-01-02","","Breiðablik","Bologna","Italy",NA,NA
35,"Mitchell Dijks","NED","D",1.93,90,"09-02-93","Purmerend","Ajax","Bologna","Italy",52.4997208,4.96442003688997
36,"","","",NA,NA,"","","","Bologna","Italy",NA,NA
37,"","","",NA,NA,"","","","Bologna","Italy",NA,NA
38,"","","",NA,NA,"","","","Bologna","Italy",NA,NA
39,"","","",NA,NA,"","","","Bologna","Italy",NA,NA
40,"","","",NA,NA,"","","","Bologna","Italy",NA,NA
54,"Lirim Kastrati","KVX","D",1.77,59,"02-02-99","Mališevo","Roma","Bologna","Italy",42.4838388,20.7430294
62,"Gabriele Boloca","ROU","D",1.87,73,"31-03-01","Chieri","Juventus","Bologna","Italy",45.0138842,7.8223544
70,"Dion Ruffo Luci","ITA","M",1.79,68,"12-07-01","Bologna","None","Bologna","Italy",44.4936714,11.3430347
72,"Leonardo Stanzani","ITA","F",1.77,71,"12-04-00","Bologna","Fiorentina","Bologna","Italy",44.4936714,11.3430347
80,"Leonardo Mazza","ITA","M",1.7,64,"27-09-00","Bologna","None","Bologna","Italy",44.4936714,11.3430347
90,"Denis Portanova","ITA","D",NA,NA,"20-06-01","Naples","Torino","Bologna","Italy",40.8359336,14.2487826
97,"Mouhamadou Sarr","SEN","G",1.9,78,"05-01-97","Kaolack","None","Bologna","Italy",13.9631756,-15.7888834
99,"Musa Barrow","GAM","F",1.83,70,"14-11-98","Banjul","Atalanta","Bologna","Italy",13.45535,-16.575646
NA,"Kristo Shehu","GRE","F",1.89,68,"01-03-00","Eretria","Panathinaikos","Bologna","Italy",15.9500319,37.9999668
1,"Jesse Joronen","FIN","G",1.97,89,"21-03-93","Helsinki","FC København","Brescia","Italy",60.1674098,24.9425769
2,"Stefano Sabelli","ITA","D",1.78,74,"13-01-93","Rome","Bari","Brescia","Italy",41.8933203,12.4829321
3,"Aleš Mateju","CZE","D",1.84,79,"03-06-96","Príbram","Brighton & HA","Brescia","Italy",49.6901444,14.0103663
4,"Sandro Tonali","ITA","M",1.81,79,"08-05-00","Lodi","None","Brescia","Italy",45.2613104,9.49167806002184
5,"Daniele Gastaldello","ITA","D",1.87,77,"25-06-83","Camposampiero","Bologna","Brescia","Italy",45.57176,11.9319294
6,"Emanuele Ndoj","ALB","M",1.89,70,"20-11-96","Catania","Roma","Brescia","Italy",37.5022355,15.08738
7,"Nikolas Špalek","SVK","F",1.7,64,"12-02-97","Šala","MŠK Žilina","Brescia","Italy",48.13544175,17.8917963209469
8,"Jaromír Zmrhal","CZE","M",1.89,76,"02-08-93","Žatec","Slavia Prague","Brescia","Italy",50.3274423,13.545952
9,"Alfredo Donnarumma","ITA","F",1.79,78,"30-11-90","Torre Annunziata","Empoli","Brescia","Italy",40.7525236,14.4550044
10,"","","",NA,NA,"","","","Brescia","Italy",NA,NA
11,"Ernesto Torregrossa","ITA","F",1.84,80,"28-06-92","Caltanissetta","Verona","Brescia","Italy",37.4899412,14.0631618
12,"Lorenzo Andrenacci","ITA","G",1.88,78,"02-01-95","Fermo","Milan","Brescia","Italy",43.0922489,13.6387680672638
13,"","","",NA,NA,"","","","Brescia","Italy",NA,NA
14,"Jhon Chancellor","VEN","D",1.98,86,"02-01-92","Puerto Ordaz","Al-Ahli [QAT]","Brescia","Italy",8.27509,-62.7556955
15,"Andrea Cistana","ITA","D",1.87,78,"01-04-97","Brescia","None","Brescia","Italy",45.77958045,10.4258729694612
16,"","","",NA,NA,"","","","Brescia","Italy",NA,NA
17,"","","",NA,NA,"","","","Brescia","Italy",NA,NA
18,"Florian Ayé","FRA","F",1.84,75,"19-01-97","Paris","Clermont","Brescia","Italy",48.8566969,2.3514616
19,"Massimiliano Mangraviti","ITA","M",1.83,72,"24-01-98","Brescia","None","Brescia","Italy",45.77958045,10.4258729694612
20,"","","",NA,NA,"","","","Brescia","Italy",NA,NA
21,"","","",NA,NA,"","","","Brescia","Italy",NA,NA
22,"Enrico Alfonso","ITA","G",1.91,85,"04-05-88","Padua","Cittadella","Brescia","Italy",45.4077172,11.8734455
23,"Simon Skrabb","FIN","F",1.74,75,"19-01-95","Jakobstad","IFK Norrköping","Brescia","Italy",63.6666709,22.7000229
24,"Mattia Viviani","ITA","M",1.83,74,"04-09-00","Brescia","None","Brescia","Italy",45.77958045,10.4258729694612
25,"Dimitri Bisoli","ITA","M",1.8,72,"25-03-94","Cagliari","Fidelis Andria","Brescia","Italy",39.2169525,9.1128513
26,"Bruno Martella","ITA","D",1.83,78,"14-08-92","Atri","Crotone","Brescia","Italy",42.5801368,13.9764121
27,"Daniele Dessena","ITA","M",1.81,80,"10-05-87","Parma","Cagliari","Brescia","Italy",44.8013678,10.3280833
28,"Rômulo","BRA","M",1.78,72,"22-05-87","Pelotas","Genoa","Brescia","Italy",-31.7699736,-52.3410161
29,"Alessandro Semprini","ITA","D",1.83,75,"24-02-98","Brescia","None","Brescia","Italy",45.77958045,10.4258729694612
30,"","","",NA,NA,"","","","Brescia","Italy",NA,NA
31,"Birkir Bjarnason","ISL","M",1.82,73,"27-05-88","Akureyri","Al-Arabi [QAT]","Brescia","Italy",65.6826364,-18.0912993
32,"Andrea Papetti","ITA","D",NA,NA,"03-07-02","Cernusco sul Naviglio","None","Brescia","Italy",45.5245578,9.330925
33,"","","",NA,NA,"","","","Brescia","Italy",NA,NA
34,"","","",NA,NA,"","","","Brescia","Italy",NA,NA
35,"","","",NA,NA,"","","","Brescia","Italy",NA,NA
36,"","","",NA,NA,"","","","Brescia","Italy",NA,NA
37,"","","",NA,NA,"","","","Brescia","Italy",NA,NA
38,"","","",NA,NA,"","","","Brescia","Italy",NA,NA
39,"","","",NA,NA,"","","","Brescia","Italy",NA,NA
40,"","","",NA,NA,"","","","Brescia","Italy",NA,NA
45,"Mario Balotelli","ITA","F",1.89,88,"12-08-90","Palermo","Marseille","Brescia","Italy",38.1112268,13.3524434
1,"Rafael","ITA","G",1.87,80,"03-03-82","São Paulo","Verona","Cagliari","Italy",-23.5506507,-46.6333824
2,"","","",NA,NA,"","","","Cagliari","Italy",NA,NA
3,"Federico Mattiello","ITA","D",1.84,70,"14-07-95","Barga","Atalanta","Cagliari","Italy",44.0739178,10.484263
4,"Radja Nainggolan","BEL","M",1.76,65,"04-05-88","Antwerp","Internazionale","Cagliari","Italy",51.2211097,4.3997081
5,"","","",NA,NA,"","","","Cagliari","Italy",NA,NA
6,"Marko Rog","CRO","M",1.8,74,"19-07-95","Varaždin","Napoli","Cagliari","Italy",46.308029,16.3377904
7,"","","",NA,NA,"","","","Cagliari","Italy",NA,NA
8,"Luca Cigarini","ITA","M",1.75,72,"20-06-86","Montecchio Emilia","Sampdoria","Cagliari","Italy",44.7004508,10.4464132
9,"Alberto Paloschi","ITA","F",1.82,82,"04-01-90","Chiari","SPAL","Cagliari","Italy",45.5364624,9.928846
10,"João Pedro","BRA","M",1.84,73,"09-03-92","Ipatinga","Estoril","Cagliari","Italy",-19.4777807,-42.5270802
11,"","","",NA,NA,"","","","Cagliari","Italy",NA,NA
12,"Fabrizio Cacciatore","ITA","D",1.82,85,"08-10-86","Turin","Chievo Verona","Cagliari","Italy",45.0677551,7.6824892
13,"","","",NA,NA,"","","","Cagliari","Italy",NA,NA
14,"Valter Birsa","SVN","M",1.84,81,"07-08-86","Sempeter pri Gorici","Chievo Verona","Cagliari","Italy",45.9303401,13.6398587
15,"Ragnar Klavan","EST","D",1.87,78,"30-10-85","Viljandi","Liverpool","Cagliari","Italy",58.366048,25.587748
16,"","","",NA,NA,"","","","Cagliari","Italy",NA,NA
17,"Christian Oliva","URU","M",1.78,75,"01-06-96","Ciudad del Plata","Nacional [URU]","Cagliari","Italy",-34.7515308,-56.4205752
18,"Nahitan Nández","URU","M",1.72,70,"28-12-95","Punta del Este","Boca Juniors","Cagliari","Italy",-34.9632342,-54.9439981
19,"Fabio Pisacane","ITA","D",1.78,77,"28-01-86","Naples","Avellino","Cagliari","Italy",40.8359336,14.2487826
20,"Gastón Pereiro","URU","M",1.88,76,"11-06-95","Montevideo","PSV Eindhoven","Cagliari","Italy",-34.9059039,-56.1913569
21,"Artur Ionita","MDA","M",1.84,73,"17-08-90","Chisinau","Verona","Cagliari","Italy",47.0244707,28.8322534
22,"Charalampos Lykogiannis","GRE","D",1.9,87,"22-10-93","Piraeus","Sturm Graz","Cagliari","Italy",37.9431594,23.6470593
23,"Luca Ceppitelli","ITA","D",1.86,83,"11-08-89","Castiglione del Lago","Parma","Cagliari","Italy",43.127141,12.04525
24,"Paolo Faragò","ITA","M",1.87,80,"12-02-93","Catanzaro","Novara","Cagliari","Italy",38.82996035,16.4315568762783
25,"","","",NA,NA,"","","","Cagliari","Italy",NA,NA
26,"Daniele Ragatzu","ITA","F",1.72,68,"21-09-91","Cagliari","Olbia","Cagliari","Italy",39.2169525,9.1128513
27,"","","",NA,NA,"","","","Cagliari","Italy",NA,NA
28,"Alessio Cragno","ITA","G",1.84,78,"28-06-94","Fiesole","Brescia","Cagliari","Italy",43.8066689,11.2930735
29,"","","",NA,NA,"","","","Cagliari","Italy",NA,NA
30,"Leonardo Pavoletti","ITA","F",1.88,85,"26-11-88","Livorno","Napoli","Cagliari","Italy",42.79021905,10.3402813923538
31,"","","",NA,NA,"","","","Cagliari","Italy",NA,NA
32,"","","",NA,NA,"","","","Cagliari","Italy",NA,NA
33,"Luca Pellegrini","ITA","D",1.78,72,"07-03-99","Rome","Juventus","Cagliari","Italy",41.8933203,12.4829321
34,"Giuseppe Ciocci","ITA","G",1.9,85,"24-01-02","Cagliari","None","Cagliari","Italy",39.2169525,9.1128513
35,"Riccardo Ladinetti","ITA","M",1.82,76,"20-12-00","Cagliari","None","Cagliari","Italy",39.2169525,9.1128513
36,"Andrea Carboni","ITA","D",1.85,77,"04-02-01","Sorgono","None","Cagliari","Italy",40.025952,9.102034
37,"Luca Gagliano","ITA","F",1.82,75,"14-07-00","Alghero","None","Cagliari","Italy",40.5600205,8.3151473
38,"Fabio Porru","ITA","D",1.82,73,"03-01-00","Cagliari","None","Cagliari","Italy",39.2169525,9.1128513
39,"","","",NA,NA,"","","","Cagliari","Italy",NA,NA
40,"Sebastian Walukiewicz","POL","D",1.88,85,"05-04-00","Gorzów Wielkopolski","Pogon Szczecin","Cagliari","Italy",52.7309926,15.2400451
90,"Robin Olsen","SWE","G",1.96,86,"08-01-90","Malmö","Roma","Cagliari","Italy",55.6052931,13.0001566
99,"Giovanni Simeone","ARG","F",1.8,81,"05-07-95","Buenos Aires","Fiorentina","Cagliari","Italy",-34.6075682,-58.4370894
1,"Pietro Terracciano","ITA","G",1.93,78,"08-03-90","San Felice a Cancello","Empoli","

Fiorentina","Italy",41.0123935,14.4829931
2,"","","",NA,NA,"","","","

Fiorentina","Italy",NA,NA
3,"Igor","BRA","D",1.85,84,"07-02-98","Bom Sucesso","SPAL","

Fiorentina","Italy",-21.0323516,-44.7598082
4,"Nikola Milenkovic","SRB","D",1.95,92,"12-10-97","Belgrade","Partizan Belgrade","

Fiorentina","Italy",44.8178131,20.4568974
5,"Milan Badelj","CRO","M",1.86,80,"25-02-89","Zagreb","Lazio","

Fiorentina","Italy",45.813177,15.977048
6,"","","",NA,NA,"","","","

Fiorentina","Italy",NA,NA
7,"Franck Ribéry","FRA","M",1.7,73,"01-04-83","Boulogne-sur-Mer","Bayern Munich","

Fiorentina","Italy",50.7259985,1.6118771
8,"Gaetano Castrovilli","ITA","M",1.79,72,"17-02-97","Canosa di Puglia","Bari","

Fiorentina","Italy",41.219631,16.067466
9,"Cristian Kouamé","CIV","F",1.85,70,"06-12-97","Bingerville","Genoa","

Fiorentina","Italy",5.3577727,-3.8885591
10,"","","",NA,NA,"","","","

Fiorentina","Italy",NA,NA
11,"Riccardo Sottil","ITA","F",1.8,70,"03-06-99","Turin","Torino","

Fiorentina","Italy",45.0677551,7.6824892
12,"Niccolò Chiorra","ITA","G",NA,NA,"16-03-01","Bagno a Ripoli","None","

Fiorentina","Italy",43.752172,11.3199949
13,"","","",NA,NA,"","","","

Fiorentina","Italy",NA,NA
14,"","","",NA,NA,"","","","

Fiorentina","Italy",NA,NA
15,"","","",NA,NA,"","","","

Fiorentina","Italy",NA,NA
16,"","","",NA,NA,"","","","

Fiorentina","Italy",NA,NA
17,"Federico Ceccherini","ITA","D",1.87,75,"11-05-92","Livorno","Crotone","

Fiorentina","Italy",42.79021905,10.3402813923538
18,"Rachid Ghezzal","ALG","M",1.82,65,"09-05-92","Décines-Charpieu","Leicester C","

Fiorentina","Italy",45.773606,4.9633314
19,"Kevin Agudelo","COL","M",1.78,70,"14-11-98","Puerto Caicedo","Genoa","

Fiorentina","Italy",0.7354052,-76.4822257226411
20,"Germán Pezzella","ARG","D",1.87,82,"27-06-91","Bahía Blanca","Betis","

Fiorentina","Italy",-38.7182364,-62.266245
21,"Pol Lirola","ESP","D",1.83,76,"13-08-97","Mollet del Vallès","Sassuolo","

Fiorentina","Italy",41.5393484,2.2130934
22,"Martín Cáceres","URU","D",1.8,78,"07-04-87","Montevideo","Lazio","

Fiorentina","Italy",-34.9059039,-56.1913569
23,"Lorenzo Venuti","ITA","D",1.76,65,"12-04-95","Montevarchi","None","

Fiorentina","Italy",43.5234999,11.5675911
24,"Marco Benassi","ITA","M",1.83,80,"08-09-94","Modena","Torino","

Fiorentina","Italy",44.5384728,10.9359608705307
25,"Federico Chiesa","ITA","F",1.75,70,"25-10-97","Genoa","None","

Fiorentina","Italy",44.40726,8.9338624
26,"Bobby Duncan","ENG","F",1.76,74,"26-06-01","Whiston","Liverpool","

Fiorentina","Italy",53.4169156,-2.7905803
27,"","","",NA,NA,"","","","

Fiorentina","Italy",NA,NA
28,"Dušan Vlahovic","SRB","F",1.9,75,"28-01-00","Belgrade","Partizan Belgrade","

Fiorentina","Italy",44.8178131,20.4568974
29,"Dalbert","BRA","D",1.82,70,"08-09-93","Rio de Janeiro","Internazionale","

Fiorentina","Italy",-22.9110137,-43.2093727
30,"Eduard Du<U+021B>u","ROU","D",NA,NA,"18-04-01","Rome","None","

Fiorentina","Italy",41.8933203,12.4829321
31,"Edoardo Pierozzi","ITA","D",1.78,NA,"12-09-01","Florence","None","

Fiorentina","Italy",43.7698712,11.2555757
32,"Christian Dalle Mura","ITA","D",1.85,78,"02-02-02","Pietrasanta","None","

Fiorentina","Italy",43.9589031,10.2332031
33,"Federico Brancolini","ITA","G",1.92,78,"14-07-01","Modena","Modena","

Fiorentina","Italy",44.5384728,10.9359608705307
34,"Federico Simonti","ITA","D",NA,NA,"14-06-00","Bagno a Ripoli","None","

Fiorentina","Italy",43.752172,11.3199949
35,"Niccolò Pierozzi","ITA","M",1.8,NA,"12-09-01","Florence","None","

Fiorentina","Italy",43.7698712,11.2555757
36,"","","",NA,NA,"","","","

Fiorentina","Italy",NA,NA
37,"","","",NA,NA,"","","","

Fiorentina","Italy",NA,NA
38,"","","",NA,NA,"","","","

Fiorentina","Italy",NA,NA
39,"","","",NA,NA,"","","","

Fiorentina","Italy",NA,NA
40,"Mattia Fiorini","ITA","M",1.85,NA,"31-03-01","Bagno a Ripoli","None","

Fiorentina","Italy",43.752172,11.3199949
41,"Lorenzo Chiti","ITA","D",NA,NA,"13-01-01","Florence","Aglianese","

Fiorentina","Italy",43.7698712,11.2555757
63,"Patrick Cutrone","ITA","F",1.83,75,"03-01-98","Como","Wolverhampton W","

Fiorentina","Italy",45.9394759,9.14941014540895
69,"Bartlomiej Dragowski","POL","G",1.91,86,"19-08-97","Bialystok","Jagiellonia Bialystok","

Fiorentina","Italy",53.132398,23.1591679
77,"Cyril Théreau","FRA","F",1.91,80,"24-04-83","Privas","Udinese","

Fiorentina","Italy",44.7352708,4.5986733
78,"Erick Pulgar","CHI","M",1.87,74,"15-01-94","Antofagasta","Bologna","

Fiorentina","Italy",-23.6463741,-70.3980033
88,"Alfred Duncan","GHA","M",1.78,78,"10-03-93","Accra","Sassuolo","

Fiorentina","Italy",5.5600141,-0.2057437
93,"Aleksa Terzic","SRB","D",1.84,79,"17-08-99","Belgrade","Crvena Zvezda","

Fiorentina","Italy",44.8178131,20.4568974
1,"Mattia Perin","ITA","G",1.88,77,"10-11-92","Latina","Juventus","Genoa","Italy",41.45952605,13.0125912121889
2,"Cristián Zapata","COL","D",1.86,82,"30-09-86","Padilla Cauca","Milan","Genoa","Italy",3.1859406,-76.3379679531425
3,"Antonio Barreca","ITA","D",1.83,70,"18-03-95","Turin","Monaco","Genoa","Italy",45.0677551,7.6824892
4,"Domenico Criscito","ITA","D",1.83,70,"30-12-86","Cercola","Zenit St Petersburg","Genoa","Italy",40.8576817,14.3551577
5,"Edoardo Goldaniga","ITA","D",1.93,82,"02-11-93","Milan","Sassuolo","Genoa","Italy",45.4668,9.1905
6,"","","",NA,NA,"","","","Genoa","Italy",NA,NA
7,"","","",NA,NA,"","","","Genoa","Italy",NA,NA
8,"Lukas Lerager","DEN","M",1.88,80,"12-07-93","Gladsaxe","Bordeaux","Genoa","Italy",55.7383794,12.4696107
9,"Antonio Sanabria","PAR","F",1.8,74,"04-03-96","San Lorenzo","Betis","Genoa","Italy",42.3832108,9.287966
10,"Iago Falqué","ESP","F",1.74,69,"04-01-90","Vigo","Torino","Genoa","Italy",42.2376602,-8.7247205
11,"","","",NA,NA,"","","","Genoa","Italy",NA,NA
12,"","","",NA,NA,"","","","Genoa","Italy",NA,NA
13,"Salvador Ichazo","URU","G",1.88,83,"26-01-92","San José da Mayo","Torino","Genoa","Italy",-1.483333,-80.333333
14,"Davide Biraschi","ITA","D",1.82,73,"02-07-94","Rome","Avellino","Genoa","Italy",41.8933203,12.4829321
15,"Filip Jagiello","POL","M",1.8,70,"08-08-97","Lubin","Zaglebie Lubin","Genoa","Italy",51.3974465,16.2051275
16,"Sebastian Eriksson","SWE","M",1.85,72,"31-01-89","Asebro","IFK Göteborg","Genoa","Italy",55.9791534,12.0133196
17,"Cristian Romero","ARG","D",1.85,79,"27-04-98","Córdoba","Juventus","Genoa","Italy",37.8845813,-4.7760138
18,"Paolo Ghiglione","ITA","M",1.91,80,"02-02-97","Voghera","None","Genoa","Italy",44.9928402,9.0085929
19,"Goran Pandev","MKD","F",1.84,75,"27-07-83","Strumica","Galatasaray","Genoa","Italy",41.4392045,22.6397203
20,"Lasse Schøne","DEN","M",1.77,73,"27-05-86","Glostrup","Ajax","Genoa","Italy",55.6835672,12.4128011280619
21,"Ivan Radovanovic","SRB","M",1.86,80,"29-08-88","Belgrade","Chievo Verona","Genoa","Italy",44.8178131,20.4568974
22,"Federico Marchetti","ITA","G",1.88,82,"07-02-83","Bassano del Grappa","Lazio","Genoa","Italy",45.7669109,11.7343469
23,"Mattia Destro","ITA","F",1.82,80,"20-03-91","Ascoli Piceno","Bologna","Genoa","Italy",42.8834204,13.539593040686
24,"Flavio Bianchi","ITA","F",NA,NA,"24-01-00","Voghera","None","Genoa","Italy",44.9928402,9.0085929
25,"Rok Vodišek","SVN","G",1.88,83,"05-12-98","Ljubljana","Olimpija Ljubljana","Genoa","Italy",46.0499803,14.5068602
26,"","","",NA,NA,"","","","Genoa","Italy",NA,NA
27,"Stefano Sturaro","ITA","M",1.81,80,"09-03-93","Sanremo","Juventus","Genoa","Italy",43.8198253,7.7748827
28,"","","",NA,NA,"","","","Genoa","Italy",NA,NA
29,"Francesco Cassata","ITA","M",1.83,75,"16-07-97","Sarzana","Sassuolo","Genoa","Italy",44.1118716,9.9587463
30,"Andrea Favilli","ITA","F",1.9,85,"17-05-97","Pisa","Juventus","Genoa","Italy",43.7159395,10.4018624
31,"","","",NA,NA,"","","","Genoa","Italy",NA,NA
32,"Peter Ankersen","DEN","D",1.8,73,"22-09-90","Esbjerg","FC København","Genoa","Italy",55.4664892,8.4520751
33,"Marko Pajac","CRO","D",1.85,66,"11-05-93","Zagreb","Cagliari","Genoa","Italy",45.813177,15.977048
34,"","","",NA,NA,"","","","Genoa","Italy",NA,NA
35,"","","",NA,NA,"","","","Genoa","Italy",NA,NA
36,"Mattia Zennaro","ITA","M",1.84,NA,"03-08-00","Venice","Venezia","Genoa","Italy",45.4371908,12.3345898
37,"","","",NA,NA,"","","","Genoa","Italy",NA,NA
38,"","","",NA,NA,"","","","Genoa","Italy",NA,NA
39,"","","",NA,NA,"","","","Genoa","Italy",NA,NA
40,"","","",NA,NA,"","","","Genoa","Italy",NA,NA
55,"Andrea Masiello","ITA","D",1.84,82,"05-02-86","Viareggio","Atalanta","Genoa","Italy",43.8672392,10.2506055
56,"Denilho Cleonise","NED","F",1.77,NA,"08-12-01","","Ajax","Genoa","Italy",NA,NA
61,"Luca Moro","ITA","F",NA,NA,"25-01-01","Monselice","Padova","Genoa","Italy",45.2417684,11.7508534
65,"Nicolò Rovella","ITA","M",1.79,NA,"04-12-01","Segrate","None","Genoa","Italy",45.4907352,9.2948204
72,"Vasco Oliveira","POR","D",1.86,73,"28-05-00","Lisbon","Cagliari","Genoa","Italy",38.7077507,-9.1365919
73,"Patrizio Masini","ITA","M",NA,NA,"27-01-01","La Spezia","None","Genoa","Italy",44.23836595,9.69123263454754
85,"Valon Behrami","SUI","M",1.85,71,"19-04-85","Mitrovica","Sion","Genoa","Italy",42.8790435,20.8659265
89,"Steeve Eboua","FRA","M",1.8,NA,"20-02-01","","Bordeaux","Genoa","Italy",NA,NA
92,"Adama Soumaoro","CIV","D",1.87,75,"18-06-92","Fontenay-aux-Roses","Lille","Genoa","Italy",48.7911052,2.2870373
99,"Andrea Pinamonti","ITA","F",1.86,72,"19-05-99","Cles","Internazionale","Genoa","Italy",46.3652616,11.0332447
1,"Samir Handanovic","SVN","G",1.93,89,"14-07-84","Ljubljana","Udinese","Internazionale","Italy",46.0499803,14.5068602
2,"Diego Godín","URU","D",1.87,79,"16-02-86","Rosario","Atlético Madrid","Internazionale","Italy",-32.9595004,-60.6615415
3,"","","",NA,NA,"","","","Internazionale","Italy",NA,NA
4,"","","",NA,NA,"","","","Internazionale","Italy",NA,NA
5,"Roberto Gagliardini","ITA","M",1.88,77,"07-04-94","Bergamo","Atalanta","Internazionale","Italy",45.7566557,9.75421920086225
6,"Stefan de Vrij","NED","D",1.88,78,"05-02-92","Ouderkerk aan den IJssel","Lazio","Internazionale","Italy",51.9429767,4.65766644532911
7,"Alexis Sánchez","CHI","F",1.69,62,"19-12-88","Tocopilla","Manchester U","Internazionale","Italy",-22.088781,-70.1960362
8,"Matías Vecino","URU","M",1.87,81,"24-08-91","Canelones","Fiorentina","Internazionale","Italy",-34.6222482,-55.9903797
9,"Romelu Lukaku","BEL","F",1.9,94,"13-05-93","Antwerp","Manchester U","Internazionale","Italy",51.2211097,4.3997081
10,"Lautaro Martínez","ARG","F",1.74,79,"22-08-97","Bahía Blanca","Racing Club","Internazionale","Italy",-38.7182364,-62.266245
11,"Victor Moses","NGA","M",1.77,79,"12-12-90","Lagos","Chelsea","Internazionale","Italy",6.4550575,3.3941795
12,"Stefano Sensi","ITA","M",1.68,62,"05-08-95","Urbino","Sassuolo","Internazionale","Italy",43.7262608,12.6363135
13,"Andrea Ranocchia","ITA","D",1.95,80,"16-02-88","Assisi","Genoa","Internazionale","Italy",43.0711952,12.6146669
14,"","","",NA,NA,"","","","Internazionale","Italy",NA,NA
15,"Ashley Young","ENG","M",1.75,65,"09-07-85","Stevenage","Manchester U","Internazionale","Italy",51.9035099,-0.2013368
16,"","","",NA,NA,"","","","Internazionale","Italy",NA,NA
17,"","","",NA,NA,"","","","Internazionale","Italy",NA,NA
18,"Kwadwo Asamoah","GHA","D",1.73,76,"09-12-88","Accra","Juventus","Internazionale","Italy",5.5600141,-0.2057437
19,"","","",NA,NA,"","","","Internazionale","Italy",NA,NA
20,"Borja Valero","ESP","M",1.76,75,"12-01-85","Madrid","Fiorentina","Internazionale","Italy",40.4167047,-3.7035825
21,"","","",NA,NA,"","","","Internazionale","Italy",NA,NA
22,"","","",NA,NA,"","","","Internazionale","Italy",NA,NA
23,"Nicolò Barella","ITA","M",1.72,68,"07-02-97","Cagliari","Cagliari","Internazionale","Italy",39.2169525,9.1128513
24,"Christian Eriksen","DEN","M",1.82,76,"14-02-92","Middelfart","Tottenham H","Internazionale","Italy",55.4470245,9.93699440734142
25,"","","",NA,NA,"","","","Internazionale","Italy",NA,NA
26,"","","",NA,NA,"","","","Internazionale","Italy",NA,NA
27,"Daniele Padelli","ITA","G",1.91,90,"25-10-85","Lecco","Torino","Internazionale","Italy",45.9005485,9.41202482143963
28,"","","",NA,NA,"","","","Internazionale","Italy",NA,NA
29,"","","",NA,NA,"","","","Internazionale","Italy",NA,NA
30,"Sebastiano Esposito","ITA","F",1.86,75,"02-07-02","Castellammare di Stabia","Brescia","Internazionale","Italy",40.6943046,14.4804813
31,"Lorenzo Pirola","ITA","D",1.85,72,"20-02-02","Carate Brianza","None","Internazionale","Italy",45.6765494,9.2371619
32,"Lucien Agoume","FRA","M",1.85,75,"09-02-02","Yaoundé","Sochaux","Internazionale","Italy",3.8689867,11.5213344
33,"Danilo D'Ambrosio","ITA","D",1.8,75,"09-09-88","Naples","Torino","Internazionale","Italy",40.8359336,14.2487826
34,"Cristiano Biraghi","ITA","D",1.85,78,"01-09-92","Cernusco sul Naviglio","Fiorentina","Internazionale","Italy",45.5245578,9.330925
35,"Filip Stankovic","SRB","G",1.86,NA,"25-02-02","Rome","None","Internazionale","Italy",41.8933203,12.4829321
36,"Thomas Schirò","ITA","M",1.83,NA,"25-04-00","Novara","None","Internazionale","Italy",45.58425005,8.54599697089457
37,"Milan Škriniar","SVK","D",1.87,80,"11-02-95","Žiar nad Hronom","Sampdoria","Internazionale","Italy",48.57579075,18.9094792347147
38,"Giacomo Pozzer","ITA","G",1.85,77,"19-02-01","Mirano","None","Internazionale","Italy",45.4668,9.1905
39,"Edoardo Vergani","ITA","F",1.86,70,"06-02-01","Segrate","Monza","Internazionale","Italy",45.4907352,9.2948204
40,"Matias Fonseca","ITA","F",NA,NA,"12-03-01","Naples","None","Internazionale","Italy",40.8359336,14.2487826
46,"Tommaso Berni","ITA","G",1.85,80,"06-03-83","Florence","Torino","Internazionale","Italy",43.7698712,11.2555757
77,"Marcelo Brozovic","CRO","M",1.81,68,"16-11-92","Zagreb","Dinamo Zagreb","Internazionale","Italy",45.813177,15.977048
87,"Antonio Candreva","ITA","F",1.8,72,"28-02-87","Rome","Lazio","Internazionale","Italy",41.8933203,12.4829321
95,"Alessandro Bastoni","ITA","D",1.9,75,"13-04-99","Casalmaggiore","Atalanta","Internazionale","Italy",44.9876226,10.4164984
1,"Wojciech Szczesny","POL","G",1.95,90,"18-04-90","Warsaw","Arsenal","Juventus","Italy",52.2319581,21.0067249
2,"Mattia De Sciglio","ITA","D",1.82,78,"20-10-92","Milan","Milan","Juventus","Italy",45.4668,9.1905
3,"Giorgio Chiellini","ITA","D",1.87,86,"14-08-84","Pisa","Fiorentina","Juventus","Italy",43.7159395,10.4018624
4,"Matthijs de Ligt","NED","D",1.87,80,"12-08-99","Leiderdorp","Ajax","Juventus","Italy",52.15705765,4.54337864705976
5,"Miralem Pjanic","BIH","M",1.78,72,"02-04-90","Tuzla","Roma","Juventus","Italy",44.5391105,18.675193
6,"Sami Khedira","GER","M",1.89,90,"04-04-87","Stuttgart","Real Madrid","Juventus","Italy",48.7784485,9.1800132
7,"Cristiano Ronaldo","POR","F",1.87,84,"05-02-85","Funchal","Real Madrid","Juventus","Italy",32.6496497,-16.9086783
8,"Aaron Ramsey","WAL","M",1.78,76,"26-12-90","Caerphilly","Arsenal","Juventus","Italy",51.6723809,-3.17839377287632
9,"","","",NA,NA,"","","","Juventus","Italy",NA,NA
10,"Paulo Dybala","ARG","F",1.77,75,"15-11-93","Laguna Larga","Palermo","Juventus","Italy",28.3085,-110.258
11,"Douglas Costa","BRA","F",1.72,70,"14-09-90","Sapucaia do Sul","Bayern Munich","Juventus","Italy",-29.8197019,-51.1608722
12,"Alex Sandro","BRA","D",1.81,81,"26-01-91","Catanduva","FC Porto","Juventus","Italy",-21.1331035,-48.9712817
13,"Danilo","BRA","D",1.84,73,"15-07-91","Bicas","Manchester C","Juventus","Italy",-21.7213723,-43.0604327
14,"Blaise Matuidi","FRA","M",1.8,75,"09-04-87","Toulouse","Paris St-Germain","Juventus","Italy",43.6044622,1.4442469
15,"","","",NA,NA,"","","","Juventus","Italy",NA,NA
16,"Juan Cuadrado","COL","F",1.79,71,"26-05-88","Necoclí","Chelsea","Juventus","Italy",8.4920297,-76.6544658167316
17,"","","",NA,NA,"","","","Juventus","Italy",NA,NA
18,"","","",NA,NA,"","","","Juventus","Italy",NA,NA
19,"Leonardo Bonucci","ITA","D",1.9,82,"01-05-87","Viterbo","Milan","Juventus","Italy",42.49368885,11.9450678298077
20,"","","",NA,NA,"","","","Juventus","Italy",NA,NA
21,"Gonzalo Higuaín","ARG","F",1.86,89,"10-12-87","Brest","Napoli","Juventus","Italy",48.3905283,-4.4860088
22,"","","",NA,NA,"","","","Juventus","Italy",NA,NA
23,"","","",NA,NA,"","","","Juventus","Italy",NA,NA
24,"Daniele Rugani","ITA","D",1.9,84,"29-07-94","Lucca","Empoli","Juventus","Italy",44.0176138,10.453151842727
25,"Adrien Rabiot","FRA","M",1.88,71,"03-04-95","Saint-Maurice","Paris St-Germain","Juventus","Italy",48.3275249,7.3363439
26,"","","",NA,NA,"","","","Juventus","Italy",NA,NA
27,"","","",NA,NA,"","","","Juventus","Italy",NA,NA
28,"Merih Demiral","TUR","D",1.92,86,"05-03-98","Kocaeli","Sassuolo","Juventus","Italy",40.8216536,29.9507184
29,"","","",NA,NA,"","","","Juventus","Italy",NA,NA
30,"Rodrigo Bentancur","URU","M",1.87,72,"25-06-97","Nueva Helvecia","Boca Juniors","Juventus","Italy",-34.2849101,-57.2332491
31,"Carlo Pinsoglio","ITA","G",1.94,85,"16-03-90","Moncalieri","Vicenza","Juventus","Italy",45.0004614,7.6847543
32,"","","",NA,NA,"","","","Juventus","Italy",NA,NA
33,"Federico Bernardeschi","ITA","F",1.85,77,"16-02-94","Carrara","Fiorentina","Juventus","Italy",44.0791804,10.1023532
34,"Pietro Beruatto","ITA","D",1.84,78,"21-12-98","Trieste","None","Juventus","Italy",45.6500335,13.7706559
35,"Marco Olivieri","ITA","F",1.77,70,"30-06-99","Fermo","Empoli","Juventus","Italy",43.0922489,13.6387680672638
36,"","","",NA,NA,"","","","Juventus","Italy",NA,NA
37,"","","",NA,NA,"","","","Juventus","Italy",NA,NA
38,"Simone Muratore","ITA","M",1.86,74,"30-05-98","Cuneo","Saluzzio","Juventus","Italy",44.45807035,7.55813669115162
39,"Manolo Portanova","ITA","M",1.83,72,"02-06-00","Naples","Lazio","Juventus","Italy",40.8359336,14.2487826
40,"","","",NA,NA,"","","","Juventus","Italy",NA,NA
41,"Luca Coccolo","ITA","D",1.87,76,"23-02-98","Cirié","None","Juventus","Italy",47.3723941,8.5423328
42,"Wesley","BRA","D",1.77,66,"13-03-00","Retirolândia","Verona","Juventus","Italy",-11.4935873,-39.4245887
43,"Daouda Peeters","BEL","M",1.85,79,"26-01-99","Kamsar","Sampdoria","Juventus","Italy",10.6639752,-14.5852808
77,"Gianluigi Buffon","ITA","G",1.92,92,"28-01-78","Carrara","Paris St-Germain","Juventus","Italy",44.0791804,10.1023532
1,"Thomas Strakosha","ALB","G",1.93,78,"19-03-95","Athens","Panionios","Lazio","Italy",37.9839412,23.7283052
2,"","","",NA,NA,"","","","Lazio","Italy",NA,NA
3,"Luiz Felipe","BRA","D",1.87,80,"22-03-97","Colina","Ituano","Lazio","Italy",-20.711443,-48.53867
4,"Patric","ESP","D",1.84,72,"17-04-93","Mula","Barcelona B","Lazio","Italy",38.0418669,-1.4906872
5,"Jordan Lukaku","BEL","D",1.77,86,"25-07-94","Antwerp","Oostende","Lazio","Italy",51.2211097,4.3997081
6,"Lucas Leiva","BRA","M",1.79,78,"09-01-87","Dourados","Liverpool","Lazio","Italy",-22.2206145,-54.812208
7,"","","",NA,NA,"","","","Lazio","Italy",NA,NA
8,"Djavan Anderson","NED","D",1.8,70,"21-04-95","Amsterdam","Bari","Lazio","Italy",52.3745403,4.89797550561798
9,"","","",NA,NA,"","","","Lazio","Italy",NA,NA
10,"Luis Alberto","ESP","M",1.83,74,"28-09-92","San José del Valle","Liverpool","Lazio","Italy",36.6062584,-5.7997029
11,"Joaquín Correa","ARG","M",1.88,77,"13-08-94","Juan Bautista Alberdi","Sevilla","Lazio","Italy",-34.5868149,-58.3932314
12,"","","",NA,NA,"","","","Lazio","Italy",NA,NA
13,"Nicolò Armini","ITA","D",1.85,77,"07-03-01","Marino","None","Lazio","Italy",41.7697883,12.6586082
14,"","","",NA,NA,"","","","Lazio","Italy",NA,NA
15,"Bastos","ANG","D",1.8,77,"23-11-91","Luanda","FC Rostov","Lazio","Italy",-8.8272699,13.2439512
16,"Marco Parolo","ITA","M",1.84,75,"25-01-85","Gallarate","Parma","Lazio","Italy",45.6598951,8.7932013
17,"Ciro Immobile","ITA","F",1.85,85,"20-02-90","Torre Annunziata","Sevilla","Lazio","Italy",40.7525236,14.4550044
18,"","","",NA,NA,"","","","Lazio","Italy",NA,NA
19,"Senad Lulic","BIH","M",1.83,78,"18-01-86","Mostar","Young Boys","Lazio","Italy",43.3416104,17.8030427
20,"Felipe Caicedo","ECU","F",1.83,82,"05-09-88","Guayaquil","Espanyol","Lazio","Italy",-2.1899066,-79.887726
21,"Sergej Milinkovic-Savic","SRB","M",1.91,76,"27-02-95","Lleida","KRC Genk","Lazio","Italy",41.6147605,0.6267842
22,"Jony","ESP","M",1.79,71,"09-07-91","Cangas del Narcea","Málaga","Lazio","Italy",43.1774374,-6.5499784
23,"Guido Guerrieri","ITA","G",1.84,78,"25-02-96","Rome","None","Lazio","Italy",41.8933203,12.4829321
24,"Silvio Proto","BEL","G",1.84,74,"23-05-83","Charleroi","Olympiakos","Lazio","Italy",50.4120332,4.4436244
25,"","","",NA,NA,"","","","Lazio","Italy",NA,NA
26,"Stefan Radu","ROU","D",1.83,79,"22-10-86","Bucharest","Dinamo Bucuresti","Lazio","Italy",44.4361414,26.1027202
27,"","","",NA,NA,"","","","Lazio","Italy",NA,NA
28,"André Anderson","BRA","M",1.8,75,"23-09-99","Maracaí","Santos","Lazio","Italy",-22.6112679,-50.6670685
29,"Manuel Lazzari","ITA","M",1.74,67,"29-11-93","Valdagno","SPAL","Lazio","Italy",45.6415472,11.3038969
30,"","","",NA,NA,"","","","Lazio","Italy",NA,NA
31,"","","",NA,NA,"","","","Lazio","Italy",NA,NA
32,"Danilo Cataldi","ITA","M",1.8,70,"06-08-94","Rome","None","Lazio","Italy",41.8933203,12.4829321
33,"Francesco Acerbi","ITA","D",1.92,89,"10-02-88","Vizzolo Predabissi","Sassuolo","Lazio","Italy",45.35636,9.3497623
34,"Bobby Adekanye","NED","F",1.75,70,"14-02-99","Ibadan","Liverpool","Lazio","Italy",7.3777462,3.8972497
35,"","","",NA,NA,"","","","Lazio","Italy",NA,NA
36,"","","",NA,NA,"","","","Lazio","Italy",NA,NA
37,"","","",NA,NA,"","","","Lazio","Italy",NA,NA
38,"","","",NA,NA,"","","","Lazio","Italy",NA,NA
39,"","","",NA,NA,"","","","Lazio","Italy",NA,NA
40,"","","",NA,NA,"","","","Lazio","Italy",NA,NA
49,"Jorge Silva","POR","D",1.84,75,"04-02-99","Porto","Benfica","Lazio","Italy",41.1494512,-8.6107884
51,"Alessio Furlanetto","ITA","G",1.91,NA,"07-02-02","Motta di Livenza","None","Lazio","Italy",45.77663,12.6105482
71,"Marco Alia","ALB","G",NA,NA,"26-04-00","Albano Laziale","None","Lazio","Italy",41.7288894,12.6582689
77,"Adam Marušic","SRB","M",1.85,85,"17-10-92","Belgrade","Oostende","Lazio","Italy",44.8178131,20.4568974
93,"Denis Vavro","SVK","D",1.89,81,"10-04-96","Partizánske","FC København","Lazio","Italy",48.63468545,18.3605795257253
NA,"Mattia Novella","ITA","D",NA,NA,"25-01-01","Salerno","Salernitana","Lazio","Italy",40.41944165,15.3107562303225
1,"","","",NA,NA,"","","","Lecce","Italy",NA,NA
2,"","","",NA,NA,"","","","Lecce","Italy",NA,NA
3,"Brayan Vera","COL","D",1.8,74,"15-01-99","San Luis","Itagüí Leones","Lecce","Italy",-33.2762202,-65.9515546
4,"Jacopo Petriccione","ITA","M",1.86,75,"22-02-95","Gorizia","Bari","Lecce","Italy",45.9441278,13.6252288
5,"Fabio Lucioni","ITA","D",1.85,80,"25-09-87","Terni","Benevento","Lecce","Italy",42.6537515,12.4398116328367
6,"Nehuén Paz","ARG","D",1.91,89,"28-04-93","Capital Federal","Bologna","Lecce","Italy",-34.6075682,-58.4370894
7,"Giulio Donati","ITA","D",1.75,70,"05-02-90","Pietrasanta","Mainz","Lecce","Italy",43.9589031,10.2332031
8,"Marco Mancosu","ITA","M",1.77,75,"22-08-88","Cagliari","Casertana","Lecce","Italy",39.2169525,9.1128513
9,"Gianluca Lapadula","ITA","F",1.78,69,"07-02-90","Turin","Genoa","Lecce","Italy",45.0677551,7.6824892
10,"Filippo Falco","ITA","F",1.75,71,"11-02-92","Taranto","Bologna","Lecce","Italy",40.54881555,17.0805801245474
11,"Yevhen Shakhov","UKR","M",1.75,62,"30-11-90","Dnipropetrovsk","PAOK","Lecce","Italy",48.4680221,35.0417711
12,"","","",NA,NA,"","","","Lecce","Italy",NA,NA
13,"Luca Rossettini","ITA","D",1.87,80,"09-05-85","Padua","Genoa","Lecce","Italy",45.4077172,11.8734455
14,"Alessandro Deiola","ITA","M",1.89,85,"01-08-95","San Gavino Monreale","Cagliari","Lecce","Italy",39.550941,8.791934
15,"Ilario Monterisi","ITA","D",1.8,65,"19-12-01","Trani","Bari","Lecce","Italy",41.275088,16.4162585
16,"Biagio Meccariello","ITA","D",1.87,85,"27-03-91","Benevento","Brescia","Lecce","Italy",41.2476426,14.705466481851
17,"Diego Farias","BRA","F",1.72,66,"10-05-90","Sorocaba","Cagliari","Lecce","Italy",-23.501667,-47.458056
18,"Riccardo Saponara","ITA","M",1.84,73,"21-12-91","Forli","Fiorentina","Lecce","Italy",44.2227182,12.0412435
19,"","","",NA,NA,"","","","Lecce","Italy",NA,NA
20,"Augustas Dubickas","LTU","M",NA,NA,"17-03-01","","Mantova","Lecce","Italy",NA,NA
21,"Gabriel Vasconcellos","BRA","G",1.93,89,"27-09-92","Unaí","Perugia","Lecce","Italy",-16.3628767,-46.892413
22,"Mauro Vigorito","ITA","G",1.87,79,"22-05-90","Ozieri","Frosinone","Lecce","Italy",40.5859373,9.0010431
23,"","","",NA,NA,"","","","Lecce","Italy",NA,NA
24,"","","",NA,NA,"","","","Lecce","Italy",NA,NA
25,"Gabriele Gallo","ITA","F",NA,NA,"18-02-01","","None","Lecce","Italy",NA,NA
26,"","","",NA,NA,"","","","Lecce","Italy",NA,NA
27,"Marco Calderoni","ITA","D",1.83,75,"18-02-89","Latisana","Novara","Lecce","Italy",45.7784884,12.996219
28,"Samuele Oltremarini","ITA","F",1.75,NA,"26-11-02","Gallipoli","Soccer Dream Parabita","Lecce","Italy",40.05672,17.996423
29,"Andrea Rispoli","ITA","D",1.88,83,"29-09-88","Cava de' Tirreni","Palermo","Lecce","Italy",40.7004616,14.7062633
30,"Khouma Babacar","SEN","F",1.85,85,"17-03-93","Thiès","Sassuolo","Lecce","Italy",14.7948093,-16.9529272
31,"Silvio Colella","ITA","D",NA,NA,"02-05-02","Lecce","None","Lecce","Italy",40.1522173,18.2260628338229
32,"","","",NA,NA,"","","","Lecce","Italy",NA,NA
33,"","","",NA,NA,"","","","Lecce","Italy",NA,NA
34,"Sergio Maselli","ITA","M",NA,NA,"06-04-01","Bari","Bari","Lecce","Italy",41.1257843,16.8620293
35,"Salvatore Rimoli","ITA","F",NA,NA,"07-06-01","Naples","Genoa","Lecce","Italy",40.8359336,14.2487826
36,"Francesco Palumbo","ITA","M",1.73,NA,"27-06-01","Taranto","Foggia","Lecce","Italy",40.54881555,17.0805801245474
37,"Žan Majer","SVN","M",1.79,69,"25-07-92","Maribor","FC Rostov","Lecce","Italy",46.555628,15.64477
38,"Michele Laraspata","ITA","D",1.74,65,"02-06-01","Bari","Parma","Lecce","Italy",41.1257843,16.8620293
39,"Cristian Dell'Orco","ITA","D",1.83,75,"10-02-94","Sant'Angelo Lodigiano","Sassuolo","Lecce","Italy",45.238067,9.408656
40,"Razvan Sava","ROU","G",1.94,84,"21-06-02","Timi<U+0219>oara","Juventus","Lecce","Italy",45.7538355,21.2257474
72,"Antonín Barák","CZE","M",1.91,85,"03-12-94","Príbram","Udinese","Lecce","Italy",49.6901444,14.0103663
77,"Panagiotis Tachtsidis","GRE","M",1.91,86,"15-02-91","Nafplio","Nottingham F","Lecce","Italy",37.5696972,22.808078
97,"Gianmarco Chironi","ITA","G",1.83,73,"07-09-97","Nardò","None","Lecce","Italy",40.1762608,18.0306371
1,"Asmir Begovic","BIH","G",1.99,101,"20-06-87","Trebinje","Bournemouth","Milan","Italy",42.7107972,18.346882
2,"Davide Calabria","ITA","D",1.76,70,"06-12-96","Brescia","None","Milan","Italy",45.77958045,10.4258729694612
3,"","","",NA,NA,"","","","Milan","Italy",NA,NA
4,"Ismaël Bennacer","ALG","M",1.75,70,"01-12-97","Arles","Empoli","Milan","Italy",43.6776223,4.6309653
5,"Giacomo Bonaventura","ITA","M",1.8,75,"22-08-89","San Severino Marche","Atalanta","Milan","Italy",43.2290211,13.1779663
6,"","","",NA,NA,"","","","Milan","Italy",NA,NA
7,"Samu Castillejo","ESP","F",1.82,67,"18-01-95","Barcelona","Villarreal","Milan","Italy",41.3828939,2.1774322
8,"","","",NA,NA,"","","","Milan","Italy",NA,NA
9,"","","",NA,NA,"","","","Milan","Italy",NA,NA
10,"Hakan Çalhanoglu","TUR","M",1.78,69,"08-02-94","Mannheim","Bayer Leverkusen","Milan","Italy",49.489591,8.467236
11,"","","",NA,NA,"","","","Milan","Italy",NA,NA
12,"Andrea Conti","ITA","D",1.84,76,"02-03-94","Lecco","Atalanta","Milan","Italy",45.9005485,9.41202482143963
13,"Alessio Romagnoli","ITA","D",1.88,78,"12-01-95","Anzio","Roma","Milan","Italy",41.4471008,12.6285618
14,"","","",NA,NA,"","","","Milan","Italy",NA,NA
15,"","","",NA,NA,"","","","Milan","Italy",NA,NA
16,"","","",NA,NA,"","","","Milan","Italy",NA,NA
17,"Rafael Leão","POR","F",1.88,81,"10-06-99","Almada","Lille","Milan","Italy",38.6764302,-9.1649974
18,"Ante Rebic","CRO","F",1.82,80,"21-09-93","Split","Eintracht Frankfurt","Milan","Italy",43.5116383,16.4399659
19,"Théo Hernández","FRA","D",1.84,82,"06-10-97","Marseille","Real Madrid","Milan","Italy",43.2961743,5.3699525
20,"Lucas Biglia","ARG","M",1.78,63,"30-01-86","Mercedes","Lazio","Milan","Italy",-24.4504957,-54.1647255
21,"Zlatan Ibrahimovic","SWE","F",1.95,95,"03-10-81","Malmö","LA Galaxy","Milan","Italy",55.6052931,13.0001566
22,"Mateo Musacchio","ARG","D",1.8,75,"26-08-90","Rosario","Villarreal","Milan","Italy",-32.9595004,-60.6615415
23,"","","",NA,NA,"","","","Milan","Italy",NA,NA
24,"Simon Kjær","DEN","D",1.91,82,"26-03-89","Horsens","Sevilla","Milan","Italy",55.8611696,9.8444774
25,"","","",NA,NA,"","","","Milan","Italy",NA,NA
26,"","","",NA,NA,"","","","Milan","Italy",NA,NA
27,"","","",NA,NA,"","","","Milan","Italy",NA,NA
28,"","","",NA,NA,"","","","Milan","Italy",NA,NA
29,"","","",NA,NA,"","","","Milan","Italy",NA,NA
30,"Riccardo Tonin","ITA","F",1.8,72,"30-01-01","Arzignano","None","Milan","Italy",45.519292,11.338594
31,"","","",NA,NA,"","","","Milan","Italy",NA,NA
32,"","","",NA,NA,"","","","Milan","Italy",NA,NA
33,"Rade Krunic","BIH","M",1.84,74,"07-10-93","Foca","Empoli","Milan","Italy",43.5063826,18.7747336
34,"","","",NA,NA,"","","","Milan","Italy",NA,NA
35,"","","",NA,NA,"","","","Milan","Italy",NA,NA
36,"","","",NA,NA,"","","","Milan","Italy",NA,NA
37,"","","",NA,NA,"","","","Milan","Italy",NA,NA
38,"","","",NA,NA,"","","","Milan","Italy",NA,NA
39,"Lucas Paquetá","BRA","M",1.8,72,"27-08-97","Rio de Janeiro","Flamengo","Milan","Italy",-22.9110137,-43.2093727
40,"","","",NA,NA,"","","","Milan","Italy",NA,NA
43,"Léo Duarte","BRA","D",1.83,76,"17-07-96","Mococa","Flamengo","Milan","Italy",-21.464731,-47.002405
46,"Matteo Gabbia","ITA","D",1.85,78,"21-10-99","Busto Arsizio","None","Milan","Italy",45.6119057,8.8520522
56,"Alexis Saelemaekers","BEL","M",1.8,72,"27-06-99","Sint-Agatha-Berchem","Anderlecht","Milan","Italy",50.8649231,4.2946734
79,"Franck Kessie","CIV","M",1.83,77,"19-12-96","Ouragahio","Atalanta","Milan","Italy",6.3093054,-5.935726
84,"Matteo Soncin","ITA","G",1.9,80,"27-03-01","Adria","None","Milan","Italy",45.0534089,12.0612287
85,"Alessandro Negri","ITA","D",1.78,NA,"01-02-00","Lecco","None","Milan","Italy",45.9005485,9.41202482143963
86,"Leonardo Moleri","ITA","G",1.92,NA,"18-01-02","Bergamo","None","Milan","Italy",45.7566557,9.75421920086225
87,"Siaka Haidara","MLI","M",1.79,70,"13-05-01","Kela","None","Milan","Italy",65.0091739,25.4670483
88,"Antonio Mionic","CRO","M",1.75,NA,"31-05-01","Pula","Istra 1961","Milan","Italy",44.8701965,13.8455407
89,"Alessandro Sala","ITA","M",1.85,NA,"07-05-01","Sesto San Giovanni","None","Milan","Italy",45.5357218,9.2376549
90,"Antonio Donnarumma","ITA","G",1.95,92,"07-07-90","Castellammare di Stabia","Asteras Tripolis","Milan","Italy",40.6943046,14.4804813
93,"Diego Laxalt","URU","M",1.78,75,"07-02-93","Montevideo","Genoa","Milan","Italy",-34.9059039,-56.1913569
94,"Marco Brescianini","ITA","M",1.64,NA,"20-01-00","Calcinate","None","Milan","Italy",45.619721,9.7988771
95,"Andrea Capone","ITA","F",1.8,74,"18-03-02","Vigevano","None","Milan","Italy",45.3170942,8.858603
96,"Andreas Jungdal","DEN","G",1.95,NA,"22-02-02","Singapore","Vejle","Milan","Italy",1.340863,103.830391822121
97,"Emanuele Torrasi","ITA","M",1.8,NA,"16-03-99","Milan","None","Milan","Italy",45.4668,9.1905
98,"Daniel Maldini","ITA","F",1.85,NA,"11-10-01","Milan","None","Milan","Italy",45.4668,9.1905
99,"Gianluigi Donnarumma","ITA","G",1.96,90,"25-02-99","Castellammare di Stabia","None","Milan","Italy",40.6943046,14.4804813
1,"Alex Meret","ITA","G",1.9,77,"22-03-97","Udine","Udinese","Napoli","Italy",46.0634632,13.2358377
2,"Kévin Malcuit","FRA","D",1.78,74,"31-07-91","Chatenay-Malabry","Lille","Napoli","Italy",48.7670404,2.2775316
3,"","","",NA,NA,"","","","Napoli","Italy",NA,NA
4,"Diego Demme","GER","M",1.7,66,"21-11-91","Herford","RB Leipzig","Napoli","Italy",52.1152245,8.6711118
5,"Allan","BRA","M",1.75,73,"08-01-91","Rio de Janeiro","Udinese","Napoli","Italy",-22.9110137,-43.2093727
6,"Mário Rui","POR","D",1.7,67,"27-05-91","Sines","Roma","Napoli","Italy",37.92694175,-8.74993786808114
7,"José Callejón","ESP","F",1.79,73,"11-02-87","Motril","Real Madrid","Napoli","Italy",36.7450888,-3.5207655
8,"Fabián","ESP","M",1.89,70,"03-04-96","Los Palacios y Villafranca","Betis","Napoli","Italy",37.1582119,-5.9244567
9,"Fernando Llorente","ESP","F",1.93,88,"26-02-85","Pamplona","Tottenham H","Napoli","Italy",42.8184538,-1.6442556
10,"","","",NA,NA,"","","","Napoli","Italy",NA,NA
11,"Hirving Lozano","MEX","M",1.77,70,"30-07-95","Mexico City","PSV Eindhoven","Napoli","Italy",19.4326296,-99.1331785
12,"Eljif Elmas","MKD","M",1.84,74,"24-09-99","Skopje","Fenerbahçe","Napoli","Italy",41.9960924,21.4316495
13,"Sebastiano Luperto","ITA","D",1.91,75,"06-09-96","Lecce","Lecce","Napoli","Italy",40.1522173,18.2260628338229
14,"Dries Mertens","BEL","F",1.69,61,"06-05-87","Leuven","PSV Eindhoven","Napoli","Italy",50.879202,4.7011675
15,"Antonio Pio Daniele","ITA","G",1.84,65,"10-07-02","Massa di Somma","None","Napoli","Italy",40.8476313,14.3743024
16,"","","",NA,NA,"","","","Napoli","Italy",NA,NA
17,"","","",NA,NA,"","","","Napoli","Italy",NA,NA
18,"","","",NA,NA,"","","","Napoli","Italy",NA,NA
19,"Nikola Maksimovic","SRB","D",1.93,82,"25-11-91","Bajina Bašta","Torino","Napoli","Italy",43.9714028,19.5659497
20,"Piotr Zielinski","POL","M",1.8,75,"20-05-94","Zabkowice Slaskie","Udinese","Napoli","Italy",50.5892698,16.8111518
21,"Matteo Politano","ITA","F",1.71,65,"03-08-93","Rome","Internazionale","Napoli","Italy",41.8933203,12.4829321
22,"Giovanni Di Lorenzo","ITA","D",1.82,80,"04-08-93","Castelnuovo di Garfagnana","Empoli","Napoli","Italy",44.110022,10.4117858
23,"Elseid Hysaj","ALB","D",1.82,70,"02-02-94","Shkodër","Empoli","Napoli","Italy",42.0611921,19.5277074
24,"Lorenzo Insigne","ITA","F",1.63,59,"04-06-91","Naples","None","Napoli","Italy",40.8359336,14.2487826
25,"David Ospina","COL","G",1.83,80,"31-08-88","Medellín","Arsenal","Napoli","Italy",6.2443382,-75.573553
26,"Kalidou Koulibaly","SEN","D",1.95,89,"20-06-91","Saint-Dié","KRC Genk","Napoli","Italy",48.2873153,6.9477708
27,"Orestis Karnezis","GRE","G",1.89,79,"11-07-85","Athens","Udinese","Napoli","Italy",37.9839412,23.7283052
28,"","","",NA,NA,"","","","Napoli","Italy",NA,NA
29,"","","",NA,NA,"","","","Napoli","Italy",NA,NA
30,"","","",NA,NA,"","","","Napoli","Italy",NA,NA
31,"Faouzi Ghoulam","ALG","D",1.88,80,"01-02-91","Saint-Priest-en-Jarez","St-Etienne","Napoli","Italy",45.473408,4.3792689
32,"","","",NA,NA,"","","","Napoli","Italy",NA,NA
33,"","","",NA,NA,"","","","Napoli","Italy",NA,NA
34,"Amin Younes","GER","M",1.68,67,"06-08-93","Düsseldorf","Ajax","Napoli","Italy",51.2254018,6.7763137
35,"","","",NA,NA,"","","","Napoli","Italy",NA,NA
36,"","","",NA,NA,"","","","Napoli","Italy",NA,NA
37,"","","",NA,NA,"","","","Napoli","Italy",NA,NA
38,"","","",NA,NA,"","","","Napoli","Italy",NA,NA
39,"","","",NA,NA,"","","","Napoli","Italy",NA,NA
40,"","","",NA,NA,"","","","Napoli","Italy",NA,NA
44,"Konstantinos Manolas","GRE","D",1.89,83,"14-06-91","Naxos","Roma","Napoli","Italy",37.8240743,15.2694003
68,"Stanislav Lobotka","SVK","M",1.7,64,"25-11-94","Trencín","Celta Vigo","Napoli","Italy",48.8923583,18.0393715
99,"Arkadiusz Milik","POL","F",1.86,78,"28-02-94","Tychy","Ajax","Napoli","Italy",50.114397,18.9965933
1,"Luigi Sepe","ITA","G",1.85,75,"08-05-91","Torre del Greco","Napoli","Parma","Italy",40.7879211,14.3682813
2,"Simone Iacoponi","ITA","D",1.8,73,"30-04-87","Pontedera","Virtus Entella","Parma","Italy",43.6634536,10.6354851
3,"Kastriot Dërmaku","ALB","D",1.95,90,"15-01-92","Scandiano","Cosenza","Parma","Italy",44.5993449,10.6878385
4,"","","",NA,NA,"","","","Parma","Italy",NA,NA
5,"Vasco Regini","ITA","D",1.85,79,"09-09-90","Cesena","Sampdoria","Parma","Italy",44.136352,12.2422442
6,"","","",NA,NA,"","","","Parma","Italy",NA,NA
7,"Yann Karamoh","FRA","F",1.85,77,"08-07-98","Abidjan","Internazionale","Parma","Italy",5.320357,-4.016107
8,"Alberto Grassi","ITA","M",1.83,75,"07-03-95","Brescia","Napoli","Parma","Italy",45.77958045,10.4258729694612
9,"Roberto Inglese","ITA","F",1.86,78,"12-11-91","Lucera","Napoli","Parma","Italy",41.5082727,15.3376465
10,"Hernani","BRA","M",1.88,77,"27-03-94","São Gonçalo do Sapucaí","Zenit St Petersburg","Parma","Italy",-21.8905238,-45.5935943
11,"Andreas Cornelius","DEN","F",1.93,79,"16-03-93","Copenhagen","Atalanta","Parma","Italy",55.6867243,12.5700724
12,"","","",NA,NA,"","","","Parma","Italy",NA,NA
13,"","","",NA,NA,"","","","Parma","Italy",NA,NA
14,"","","",NA,NA,"","","","Parma","Italy",NA,NA
15,"Gastón Brugman","URU","M",1.78,75,"07-09-92","Rosario","Pescara","Parma","Italy",-32.9595004,-60.6615415
16,"Vincent Laurini","FRA","D",1.73,72,"10-06-89","Thionville","Fiorentina","Parma","Italy",49.3579272,6.1675872
17,"Antonino Barillà","ITA","M",1.8,76,"01-04-88","Reggio Calabria","Trapani","Parma","Italy",38.1035389,15.6397556
18,"","","",NA,NA,"","","","Parma","Italy",NA,NA
19,"Jasmin Kurtic","SVN","M",1.86,88,"10-01-89","Crnomelj","SPAL","Parma","Italy",45.5696669,15.1923173
20,"Gianluca Caprari","ITA","F",1.76,72,"30-07-93","Rome","Sampdoria","Parma","Italy",41.8933203,12.4829321
21,"Matteo Scozzarella","ITA","M",1.7,68,"05-06-88","Trieste","Trapani","Parma","Italy",45.6500335,13.7706559
22,"Bruno Alves","POR","D",1.89,80,"27-11-81","Porto","Rangers","Parma","Italy",41.1494512,-8.6107884
23,"Drissa Camara","CIV","M",NA,NA,"18-02-02","","None","Parma","Italy",NA,NA
24,"","","",NA,NA,"","","","Parma","Italy",NA,NA
25,"","","",NA,NA,"","","","Parma","Italy",NA,NA
26,"Luca Siligardi","ITA","F",1.79,73,"26-01-88","Correggio","Verona","Parma","Italy",44.770561,10.7797829
27,"Gervinho","CIV","F",1.79,68,"27-05-87","Anyama","Hebei China Fortune","Parma","Italy",5.4958898,-4.056921
28,"Riccardo Gagliolo","SWE","D",1.82,75,"28-04-90","Imperia","Carpi","Parma","Italy",43.95837525,7.86674271467428
29,"","","",NA,NA,"","","","Parma","Italy",NA,NA
30,"","","",NA,NA,"","","","Parma","Italy",NA,NA
31,"","","",NA,NA,"","","","Parma","Italy",NA,NA
32,"","","",NA,NA,"","","","Parma","Italy",NA,NA
33,"Juraj Kucka","SVK","M",1.86,86,"26-02-87","Bojnice","Trabzonspor","Parma","Italy",48.79205855,18.5846275796054
34,"Simone Colombi","ITA","G",1.88,83,"01-07-91","Seriate","Carpi","Parma","Italy",45.6845152,9.7183764
35,"","","",NA,NA,"","","","Parma","Italy",NA,NA
36,"Matteo Darmian","ITA","D",1.82,70,"02-12-89","Legnano","Manchester U","Parma","Italy",45.5946985,8.9183595
37,"","","",NA,NA,"","","","Parma","Italy",NA,NA
38,"Gabriele Artistico","ITA","F",NA,NA,"14-07-02","Rome","None","Parma","Italy",41.8933203,12.4829321
39,"Redi Kasa","ALB","M",NA,NA,"01-09-01","Parma","None","Parma","Italy",44.8013678,10.3280833
40,"Edoardo Corvi","ITA","G",NA,NA,"23-03-01","Parma","None","Parma","Italy",44.8013678,10.3280833
41,"Botond Balogh","HUN","D",1.89,NA,"06-06-02","Sopron","MTK","Parma","Italy",47.6803063,16.5983457
42,"Patricio Alexis Goglino","ARG","F",NA,NA,"06-02-01","Buenos Aires","None","Parma","Italy",-34.6075682,-58.4370894
44,"Dejan Kulusevski","SWE","M",1.86,79,"25-04-00","Stockholm","Juventus","Parma","Italy",59.3251172,18.0710935
88,"Andrea Adorante","ITA","F",1.84,71,"05-02-00","Parma","Internazionale","Parma","Italy",44.8013678,10.3280833
92,"Ionut Andrei Radu","ROU","G",1.88,80,"28-05-97","Bucharest","Internazionale","Parma","Italy",44.4361414,26.1027202
93,"Mattia Sprocati","ITA","F",1.78,70,"28-04-93","Monza","Lazio","Parma","Italy",45.5834418,9.2735257
97,"Giuseppe Pezzella","ITA","D",1.87,81,"29-11-97","Naples","Udinese","Parma","Italy",40.8359336,14.2487826
1,"","","",NA,NA,"","","","Roma","Italy",NA,NA
2,"Davide Zappacosta","ITA","D",1.85,70,"11-06-92","Sora","Chelsea","Roma","Italy",42.1119353,2.1610531
3,"","","",NA,NA,"","","","Roma","Italy",NA,NA
4,"Bryan Cristante","ITA","M",1.86,80,"03-03-95","San Vito al Tagliamento","Atalanta","Roma","Italy",45.9145042,12.8565956
5,"Juan Jesus","BRA","D",1.85,83,"10-06-91","Belo Horizonte","Internazionale","Roma","Italy",-19.9227318,-43.9450948
6,"Chris Smalling","ENG","D",1.94,81,"22-11-89","Greenwich","Manchester U","Roma","Italy",51.4820845,-0.0045417
7,"Lorenzo Pellegrini","ITA","M",1.86,77,"19-06-96","Rome","Sassuolo","Roma","Italy",41.8933203,12.4829321
8,"Diego Perotti","ARG","F",1.79,70,"26-07-88","Moreno","Genoa","Roma","Italy",-34.6396556,-58.7898326
9,"Edin Džeko","BIH","F",1.93,80,"17-03-86","Sarajevo","Manchester C","Roma","Italy",43.8519774,18.3866868
10,"","","",NA,NA,"","","","Roma","Italy",NA,NA
11,"Aleksandar Kolarov","SRB","D",1.87,81,"10-11-85","Belgrade","Manchester C","Roma","Italy",44.8178131,20.4568974
12,"","","",NA,NA,"","","","Roma","Italy",NA,NA
13,"Pau López","ESP","G",1.89,77,"13-12-94","Girona","Betis","Roma","Italy",41.9793006,2.8199439
14,"Gonzalo Villar","ESP","M",1.8,73,"23-03-98","Murcia","Elche","Roma","Italy",37.9923795,-1.1305431
15,"Mert Çetin","TUR","D",1.89,90,"01-01-97","Çankaya","Gençlerbirligi","Roma","Italy",39.79714825,32.9456376437684
16,"","","",NA,NA,"","","","Roma","Italy",NA,NA
17,"Cengiz Ünder","TUR","F",1.73,66,"14-07-97","Balikesir","Istanbul Basaksehir","Roma","Italy",39.5400798,28.0228793
18,"Davide Santon","ITA","D",1.87,77,"02-01-91","Portomaggiore","Internazionale","Roma","Italy",44.6992584,11.804078
19,"Nikola Kalinic","CRO","F",1.87,79,"05-01-88","Solin","Atlético Madrid","Roma","Italy",43.5441591,16.4919213
20,"Federico Fazio","ARG","D",1.95,85,"17-03-87","Capital Federal","Tottenham H","Roma","Italy",-34.6075682,-58.4370894
21,"Jordan Veretout","FRA","M",1.77,67,"01-03-93","Ancenis","Fiorentina","Roma","Italy",47.38159465,-1.18386176521985
22,"Nicolò Zaniolo","ITA","M",1.9,79,"02-07-99","Massa","Internazionale","Roma","Italy",44.0359323,10.1395519
23,"Gianluca Mancini","ITA","D",1.9,77,"17-04-96","Pontedera","Atalanta","Roma","Italy",43.6634536,10.6354851
24,"","","",NA,NA,"","","","Roma","Italy",NA,NA
25,"","","",NA,NA,"","","","Roma","Italy",NA,NA
26,"","","",NA,NA,"","","","Roma","Italy",NA,NA
27,"Javier Pastore","ARG","M",1.87,78,"20-06-89","Córdoba","Paris St-Germain","Roma","Italy",37.8845813,-4.7760138
28,"William Bianda","FRA","D",1.85,82,"30-04-00","Suresnes","Lens","Roma","Italy",48.8710994,2.2283997
29,"","","",NA,NA,"","","","Roma","Italy",NA,NA
30,"","","",NA,NA,"","","","Roma","Italy",NA,NA
31,"Carles Pérez","ESP","F",1.72,65,"16-02-98","Granollers","Barcelona","Roma","Italy",41.6079555,2.2876008
32,"","","",NA,NA,"","","","Roma","Italy",NA,NA
33,"Bruno Peres","BRA","D",1.78,72,"01-03-90","São Paulo","Torino","Roma","Italy",-23.5506507,-46.6333824
34,"","","",NA,NA,"","","","Roma","Italy",NA,NA
35,"","","",NA,NA,"","","","Roma","Italy",NA,NA
36,"","","",NA,NA,"","","","Roma","Italy",NA,NA
37,"Leonardo Spinazzola","ITA","D",1.86,75,"25-03-93","Foligno","Juventus","Roma","Italy",42.9561825,12.703334
38,"","","",NA,NA,"","","","Roma","Italy",NA,NA
39,"","","",NA,NA,"","","","Roma","Italy",NA,NA
40,"","","",NA,NA,"","","","Roma","Italy",NA,NA
41,"Roger Ibañez","BRA","D",1.85,73,"23-11-98","Cenela","Atalanta","Roma","Italy",NA,NA
42,"Amadou Diawara","GUI","M",1.83,75,"17-07-97","Conakry","Napoli","Roma","Italy",9.5170602,-13.6998434
45,"Matteo Cardinali","ITA","G",1.9,NA,"28-06-01","Rome","None","Roma","Italy",41.8933203,12.4829321
47,"Ruben Providence","FRA","F",1.73,NA,"07-07-01","Lagny-sur-Marne","Paris St-Germain","Roma","Italy",48.8773018,2.7056056
52,"Edoardo Bove","ITA","M",1.74,NA,"16-05-02","Rome","None","Roma","Italy",41.8933203,12.4829321
53,"Alessio Riccardi","ITA","M",1.78,77,"03-04-01","Rome","None","Roma","Italy",41.8933203,12.4829321
54,"Ebrima Darboe","GAM","M",NA,NA,"06-06-01","Bakoteh","None","Roma","Italy",13.43914185,-16.6970103400099
55,"Ludovico D'Orazio","ITA","F",1.75,NA,"19-02-00","Sora","None","Roma","Italy",42.1119353,2.1610531
60,"Devid Eugene Bouah","ITA","D",1.8,NA,"13-08-01","Rome","None","Roma","Italy",41.8933203,12.4829321
61,"Riccardo Calafiori","ITA","D",1.83,78,"19-05-02","Rome","None","Roma","Italy",41.8933203,12.4829321
63,"Daniel Fuzato","BRA","G",1.9,88,"04-07-97","Santa Bárbara d'Oeste","Palmeiras","Roma","Italy",-22.7552511,-47.4144958
64,"Felipe Estrella","BRA","F",1.9,82,"10-01-01","Araraquara","Ferroviária","Roma","Italy",-21.7886713,-48.1773096
77,"Henrikh Mkhitaryan","ARM","M",1.77,75,"21-01-89","Yerevan","Arsenal","Roma","Italy",40.1776121,44.5125849
83,"Antonio Mirante","ITA","G",1.93,79,"08-07-83","Castellammare di Stabia","Bologna","Roma","Italy",40.6943046,14.4804813
99,"Justin Kluivert","NED","F",1.71,67,"05-05-99","Amsterdam","Ajax","Roma","Italy",52.3745403,4.89797550561798
1,"Emil Audero","ITA","G",1.92,83,"18-01-97","Mataram","Juventus","Sampdoria","Italy",-8.5837726,116.10685
2,"","","",NA,NA,"","","","Sampdoria","Italy",NA,NA
3,"Tommaso Augello","ITA","D",1.8,70,"30-08-94","Milan","Spezia","Sampdoria","Italy",45.4668,9.1905
4,"Ronaldo Vieira","GNB","M",1.78,70,"19-07-98","Bissau","Leeds U","Sampdoria","Italy",11.861324,-15.583055
5,"Julian Chabot","GER","D",1.95,85,"12-02-98","Hanau","FC Groningen","Sampdoria","Italy",50.1335542,8.9168179
6,"Albin Ekdal","SWE","M",1.86,82,"28-07-89","Stockholm","Hamburg","Sampdoria","Italy",59.3251172,18.0710935
7,"Karol Linetty","POL","M",1.76,73,"02-02-95","Znin","Lech Poznan","Sampdoria","Italy",52.848462,17.7218791
8,"Edgar Barreto","PAR","M",1.8,79,"15-07-84","Asunción","Palermo","Sampdoria","Italy",-25.2800459,-57.6343814
9,"Federico Bonazzoli","ITA","F",1.82,79,"21-05-97","Manerbio","Internazionale","Sampdoria","Italy",45.355777,10.13517
10,"","","",NA,NA,"","","","Sampdoria","Italy",NA,NA
11,"Gastón Ramírez","URU","M",1.83,77,"02-12-90","Fray Bentos","Middlesbrough","Sampdoria","Italy",-33.1165167,-58.3130977
12,"Fabio Depaoli","ITA","D",1.78,71,"24-04-97","Riva del Garda","Chievo Verona","Sampdoria","Italy",45.8847708,10.8396942
13,"","","",NA,NA,"","","","Sampdoria","Italy",NA,NA
14,"Jakub Jankto","CZE","M",1.84,73,"19-01-96","Prague","Udinese","Sampdoria","Italy",50.0874654,14.4212535
15,"Omar Colley","GAM","D",1.91,87,"24-10-92","Lamin","KRC Genk","Sampdoria","Italy",13.3873524,-16.6438923
16,"Kristoffer Askildsen","NOR","M",1.9,70,"09-01-01","Oslo","Stabæk","Sampdoria","Italy",59.9133301,10.7389701
17,"Antonino La Gumina","ITA","F",1.82,78,"06-03-96","Palermo","Empoli","Sampdoria","Italy",38.1112268,13.3524434
18,"Morten Thorsby","NOR","M",1.89,79,"05-05-96","Oslo","SC Heerenveen","Sampdoria","Italy",59.9133301,10.7389701
19,"","","",NA,NA,"","","","Sampdoria","Italy",NA,NA
20,"Gonzalo Maroni","ARG","M",1.7,67,"18-03-99","Córdoba","Boca Juniors","Sampdoria","Italy",37.8845813,-4.7760138
21,"Lorenzo Tonelli","ITA","D",1.83,78,"17-01-90","Florence","Napoli","Sampdoria","Italy",43.7698712,11.2555757
22,"Andrea Seculin","ITA","G",1.9,78,"14-07-90","Gorizia","Chievo Verona","Sampdoria","Italy",45.9441278,13.6252288
23,"Manolo Gabbiadini","ITA","F",1.81,75,"26-11-91","Calcinate","Southampton","Sampdoria","Italy",45.619721,9.7988771
24,"Bartosz Bereszynski","POL","D",1.83,77,"12-07-92","Poznan","Legia Warszawa","Sampdoria","Italy",52.4082663,16.9335199
25,"Alex Ferrari","ITA","D",1.91,80,"01-07-94","Modena","Bologna","Sampdoria","Italy",44.5384728,10.9359608705307
26,"Mehdi Léris","FRA","M",1.86,77,"23-05-98","Mont-de-Marsan","Chievo Verona","Sampdoria","Italy",43.8911318,-0.500972
27,"Fabio Quagliarella","ITA","F",1.8,79,"31-01-83","Castellammare di Stabia","Torino","Sampdoria","Italy",40.6943046,14.4804813
28,"Matteo Raspa","ITA","G",NA,NA,"21-08-01","Genoa","None","Sampdoria","Italy",44.40726,8.9338624
29,"Nicola Murru","ITA","D",1.8,74,"16-12-94","Cagliari","Cagliari","Sampdoria","Italy",39.2169525,9.1128513
30,"Wladimiro Falcone","ITA","G",1.95,85,"12-04-95","Rome","None","Sampdoria","Italy",41.8933203,12.4829321
31,"","","",NA,NA,"","","","Sampdoria","Italy",NA,NA
32,"Felice D'Amico","ITA","F",1.75,NA,"22-08-00","Palermo","Internazionale","Sampdoria","Italy",38.1112268,13.3524434
33,"Kaique Rocha","BRA","D",1.95,90,"28-02-01","Taboão da Serra","Santos","Sampdoria","Italy",-23.6121912,-46.7790539
34,"Maya Yoshida","JPN","D",1.89,78,"24-08-88","Nagasaki","Southampton","Sampdoria","Italy",33.1154683,129.7874339
35,"Lorenzo Avogadri","ITA","G",1.9,80,"21-08-01","Bergamo","Atalanta","Sampdoria","Italy",45.7566557,9.75421920086225
36,"","","",NA,NA,"","","","Sampdoria","Italy",NA,NA
37,"","","",NA,NA,"","","","Sampdoria","Italy",NA,NA
38,"","","",NA,NA,"","","","Sampdoria","Italy",NA,NA
39,"","","",NA,NA,"","","","Sampdoria","Italy",NA,NA
40,"","","",NA,NA,"","","","Sampdoria","Italy",NA,NA
91,"Andrea Bertolacci","ITA","M",1.79,72,"11-01-91","Rome","Milan","Sampdoria","Italy",41.8933203,12.4829321
1,"","","",NA,NA,"","","","Sassuolo","Italy",NA,NA
2,"Marlon","BRA","D",1.82,80,"07-09-95","Duque de Caxias","Barcelona","Sassuolo","Italy",-22.7896225,-43.309929
3,"","","",NA,NA,"","","","Sassuolo","Italy",NA,NA
4,"Francesco Magnanelli","ITA","M",1.81,79,"12-11-84","Umbertide","Sangiovannese","Sassuolo","Italy",43.3056365,12.3366222
5,"","","",NA,NA,"","","","Sassuolo","Italy",NA,NA
6,"Rogério","BRA","D",1.77,70,"13-01-98","Nobres","Juventus","Sassuolo","Italy",-14.7196233,-56.3351314
7,"Jeremie Boga","FRA","M",1.74,72,"03-01-97","Marseille","Chelsea","Sassuolo","Italy",43.2961743,5.3699525
8,"","","",NA,NA,"","","","Sassuolo","Italy",NA,NA
9,"Francesco Caputo","ITA","F",1.81,74,"06-08-87","Altamura","Empoli","Sassuolo","Italy",40.8283631,16.5523505
10,"Filip Djuricic","SRB","M",1.81,75,"30-01-92","Obrenovac","Sampdoria","Sassuolo","Italy",44.6585512,20.2063274
11,"Grégoire Defrel","FRA","F",1.79,77,"17-06-91","Meudon","Roma","Sassuolo","Italy",48.8126688,2.2385432
12,"","","",NA,NA,"","","","Sassuolo","Italy",NA,NA
13,"Federico Peluso","ITA","D",1.88,82,"20-01-84","Rome","Juventus","Sassuolo","Italy",41.8933203,12.4829321
14,"Pedro Obiang","EQG","M",1.86,75,"27-03-92","Alcalà de Henares","West Ham U","Sassuolo","Italy",40.4818396,-3.3644973
15,"","","",NA,NA,"","","","Sassuolo","Italy",NA,NA
16,"","","",NA,NA,"","","","Sassuolo","Italy",NA,NA
17,"Mert Müldür","AUT","D",1.88,74,"03-04-99","Vienna","Rapid Vienna","Sassuolo","Italy",48.2083537,16.3725042
18,"Giacomo Raspadori","ITA","F",1.72,69,"18-02-00","Bentivoglio","None","Sassuolo","Italy",44.6345741,11.4180033
19,"Filippo Romagna","ITA","D",1.86,75,"26-05-97","Fano","Cagliari","Sassuolo","Italy",43.8424173,13.0146632
20,"","","",NA,NA,"","","","Sassuolo","Italy",NA,NA
21,"Vlad Chiriches","ROU","D",1.83,75,"14-11-89","Bacau","Napoli","Sassuolo","Italy",46.42613415,26.7120540012692
22,"Jeremy Toljan","GER","D",1.82,74,"08-08-94","Stuttgart","Borussia Dortmund","Sassuolo","Italy",48.7784485,9.1800132
23,"Hamed Junior Traoré","CIV","M",1.77,68,"16-02-00","Abidjan","Empoli","Sassuolo","Italy",5.320357,-4.016107
24,"","","",NA,NA,"","","","Sassuolo","Italy",NA,NA
25,"Domenico Berardi","ITA","F",1.83,72,"01-08-94","Cariati Marina","Juventus","Sassuolo","Italy",39.5058306,16.937134
26,"","","",NA,NA,"","","","Sassuolo","Italy",NA,NA
27,"Lukáš Haraslín","SVK","M",1.74,64,"26-05-96","Bratislava","Lechia Gdansk","Sassuolo","Italy",48.1516988,17.1093063
28,"","","",NA,NA,"","","","Sassuolo","Italy",NA,NA
29,"","","",NA,NA,"","","","Sassuolo","Italy",NA,NA
30,"","","",NA,NA,"","","","Sassuolo","Italy",NA,NA
31,"Gian Marco Ferrari","ITA","D",1.89,82,"15-05-92","Parma","Crotone","Sassuolo","Italy",44.8013678,10.3280833
32,"Giangiacomo Magnani","ITA","D",1.91,87,"04-10-95","Correggio","Juventus","Sassuolo","Italy",44.770561,10.7797829
33,"Alessandro Tripaldelli","ITA","D",1.82,76,"09-02-99","Naples","Juventus","Sassuolo","Italy",40.8359336,14.2487826
34,"","","",NA,NA,"","","","Sassuolo","Italy",NA,NA
35,"Stefano Piccinini","ITA","D",NA,NA,"31-12-02","","None","Sassuolo","Italy",NA,NA
36,"","","",NA,NA,"","","","Sassuolo","Italy",NA,NA
37,"","","",NA,NA,"","","","Sassuolo","Italy",NA,NA
38,"","","",NA,NA,"","","","Sassuolo","Italy",NA,NA
39,"","","",NA,NA,"","","","Sassuolo","Italy",NA,NA
40,"","","",NA,NA,"","","","Sassuolo","Italy",NA,NA
44,"Andrea Ghion","ITA","M",1.77,70,"23-02-00","Mantova","Parma","Sassuolo","Italy",45.16936195,10.670616406113
47,"Andrea Consigli","ITA","G",1.89,82,"27-01-87","Milan","Atalanta","Sassuolo","Italy",45.4668,9.1905
50,"Brian Oddei","ITA","F",1.75,NA,"18-09-02","","None","Sassuolo","Italy",NA,NA
51,"Jacopo Pellegrini","ITA","F",NA,NA,"19-09-00","","Reggiana","Sassuolo","Italy",NA,NA
52,"Iulius Marginean","ROU","M",1.9,NA,"03-07-01","","Zlatna","Sassuolo","Italy",NA,NA
56,"Gianluca Pegolo","ITA","G",1.83,76,"25-03-81","Bassano del Grappa","Siena","Sassuolo","Italy",45.7669109,11.7343469
63,"Stefano Turati","ITA","G",1.88,NA,"05-09-01","Milan","Renate","Sassuolo","Italy",45.4668,9.1905
64,"Alessandro Russo","ITA","G",1.88,NA,"31-03-01","Reggio Calabria","Genoa","Sassuolo","Italy",38.1035389,15.6397556
65,"Gioele Zacchi","ITA","G",1.83,81,"10-07-03","Modena","None","Sassuolo","Italy",44.5384728,10.9359608705307
68,"Mehdi Bourabia","MAR","M",1.83,73,"07-08-91","Dijon","Konyaspor","Sassuolo","Italy",47.3215806,5.0414701
73,"Manuel Locatelli","ITA","M",1.8,70,"08-01-98","Lecco","Milan","Sassuolo","Italy",45.9005485,9.41202482143963
77,"Georgios Kyriakopoulos","GRE","D",1.82,76,"05-02-96","Patras","Asteras Tripolis","Sassuolo","Italy",38.246242,21.7350847
96,"Leonardo Fontanesi","ITA","D",1.81,73,"20-02-96","Correggio","None","Sassuolo","Italy",44.770561,10.7797829
NA,"Emiliano Gómez","URU","F",1.77,80,"18-09-01","Rivera","Boston River","Sassuolo","Italy",-30.900058,-55.5408151
1,"","","",NA,NA,"","","","SPAL","Italy",NA,NA
2,"","","",NA,NA,"","","","SPAL","Italy",NA,NA
3,"","","",NA,NA,"","","","SPAL","Italy",NA,NA
4,"Thiago Rangel Cionek","POL","D",1.83,80,"21-04-86","Curitiba","Palermo","SPAL","Italy",-25.4295963,-49.2712724
5,"","","",NA,NA,"","","","SPAL","Italy",NA,NA
6,"Mirko Valdifiori","ITA","M",1.85,71,"21-04-86","Lugo","Napoli","SPAL","Italy",43.0462247,-7.4739921
7,"Simone Missiroli","ITA","M",1.91,77,"23-05-86","Reggio Calabria","Sassuolo","SPAL","Italy",38.1035389,15.6397556
8,"Mattia Valoti","ITA","M",1.87,73,"06-09-93","Vicenza","Verona","SPAL","Italy",45.63485905,11.4063542566025
9,"","","",NA,NA,"","","","SPAL","Italy",NA,NA
10,"Sergio Floccari","ITA","F",1.8,79,"12-11-81","Vibo Valentia","Bologna","SPAL","Italy",38.6266556,16.0986934589464
11,"Alessandro Murgia","ITA","M",1.85,78,"09-08-96","Rome","Lazio","SPAL","Italy",41.8933203,12.4829321
12,"","","",NA,NA,"","","","SPAL","Italy",NA,NA
13,"Arkadiusz Reca","POL","M",1.87,81,"17-06-95","Chojnice","Atalanta","SPAL","Italy",53.6952912,17.5614973
14,"Bryan Dabo","FRA","M",1.85,75,"18-02-92","Marseille","Fiorentina","SPAL","Italy",43.2961743,5.3699525
15,"","","",NA,NA,"","","","SPAL","Italy",NA,NA
16,"","","",NA,NA,"","","","SPAL","Italy",NA,NA
17,"","","",NA,NA,"","","","SPAL","Italy",NA,NA
18,"","","",NA,NA,"","","","SPAL","Italy",NA,NA
19,"Lucas Castro","ARG","M",1.82,76,"09-04-89","La Plata","Cagliari","SPAL","Italy",-34.9206797,-57.9537638
20,"","","",NA,NA,"","","","SPAL","Italy",NA,NA
21,"Gabriel Strefezza","BRA","F",1.68,63,"18-04-97","São Paulo","Corinthians","SPAL","Italy",-23.5506507,-46.6333824
22,"Demba Thiam","SEN","G",2.02,87,"09-03-98","Dakar","None","SPAL","Italy",14.693425,-17.447938
23,"Francesco Vicari","ITA","D",1.9,80,"03-08-94","Rome","Novara","SPAL","Italy",41.8933203,12.4829321
24,"","","",NA,NA,"","","","SPAL","Italy",NA,NA
25,"Karlo Letica","CRO","G",2.01,90,"11-02-97","Split","Club Brugge","SPAL","Italy",43.5116383,16.4399659
26,"Jacopo Sala","ITA","D",1.81,75,"05-12-91","Alzano Lombardo","Sampdoria","SPAL","Italy",45.7336026,9.730494
27,"Felipe","BRA","D",1.87,80,"31-07-84","Guaratingueta","Udinese","SPAL","Italy",-22.8057839,-45.1908926
28,"","","",NA,NA,"","","","SPAL","Italy",NA,NA
29,"","","",NA,NA,"","","","SPAL","Italy",NA,NA
30,"","","",NA,NA,"","","","SPAL","Italy",NA,NA
31,"Federico Di Francesco","ITA","F",1.71,75,"14-06-94","Pisa","Sassuolo","SPAL","Italy",43.7159395,10.4018624
32,"Alberto Cerri","ITA","F",1.93,91,"16-04-96","Parma","Cagliari","SPAL","Italy",44.8013678,10.3280833
33,"","","",NA,NA,"","","","SPAL","Italy",NA,NA
34,"","","",NA,NA,"","","","SPAL","Italy",NA,NA
35,"","","",NA,NA,"","","","SPAL","Italy",NA,NA
36,"","","",NA,NA,"","","","SPAL","Italy",NA,NA
37,"Andrea Petagna","ITA","F",1.88,85,"30-06-95","Trieste","Napoli","SPAL","Italy",45.6500335,13.7706559
38,"","","",NA,NA,"","","","SPAL","Italy",NA,NA
39,"","","",NA,NA,"","","","SPAL","Italy",NA,NA
40,"Nenad Tomovic","SRB","D",1.84,81,"30-08-87","Kragujevac","Chievo Verona","SPAL","Italy",44.0125745,20.91877
41,"Kevin Bonifazi","ITA","D",1.87,70,"19-05-96","Rieti","Torino","SPAL","Italy",42.416366,12.8850670365956
65,"Marco Meneghetti","ITA","G",1.88,70,"01-06-01","Pordenone","Pordenone","SPAL","Italy",45.9562503,12.6597197
66,"Bartosz Salamon","POL","D",1.94,78,"01-05-91","Poznan","Cagliari","SPAL","Italy",52.4082663,16.9335199
67,"Paolo Cannistrà","ITA","D",1.76,NA,"03-11-00","Chiaravalle Centrale","Catanzaro","SPAL","Italy",38.680383,16.410603
72,"Ricardo Farca<U+0219>","ROU","M",NA,NA,"24-06-00","Oradea","Ajax","SPAL","Italy",47.0549163,21.9285231
77,"Marco D'Alessandro","ITA","F",1.73,66,"17-02-91","Rome","Atalanta","SPAL","Italy",41.8933203,12.4829321
80,"Elios Minaj","ALB","F",NA,NA,"16-09-01","","None","SPAL","Italy",NA,NA
87,"Ervin Zukanovic","BIH","D",1.9,85,"11-02-87","Sarajevo","Al-Ahli [KSA]","SPAL","Italy",43.8519774,18.3866868
93,"Mohamed Fares","ALG","D",1.83,75,"15-02-96","Aubervilliers","Verona","SPAL","Italy",48.9146078,2.3821895
94,"Jaume Cuéllar","BOL","F",NA,NA,"23-08-01","Granollers","Barcelona","SPAL","Italy",41.6079555,2.2876008
96,"Georgi Tunjov","EST","M",1.84,71,"17-04-01","Narva","Narva Trans","SPAL","Italy",59.3794142,28.1993892
97,"Federico Zanchetta","ITA","M",NA,NA,"23-03-02","Biella","Juventus","SPAL","Italy",45.5669538,8.08691200829764
98,"Riccardo Mastrilli","ITA","D",1.85,77,"30-05-97","Giulianova","Gozzano","SPAL","Italy",42.7534856,13.9667011
99,"Etrit Berisha","ALB","G",1.94,92,"10-03-89","Priština","Atalanta","SPAL","Italy",42.6638771,21.1640849
1,"","","",NA,NA,"","","","Torino","Italy",NA,NA
2,"","","",NA,NA,"","","","Torino","Italy",NA,NA
3,"","","",NA,NA,"","","","Torino","Italy",NA,NA
4,"Lyanco","BRA","D",1.87,75,"01-02-97","Vitória","São Paulo","Torino","Italy",-20.3200917,-40.3376682
5,"Armando Izzo","ITA","D",1.83,78,"02-03-92","Naples","Genoa","Torino","Italy",40.8359336,14.2487826
6,"","","",NA,NA,"","","","Torino","Italy",NA,NA
7,"Saša Lukic","SRB","M",1.83,77,"13-08-96","Šabac","Partizan Belgrade","Torino","Italy",44.7571535,19.6953972
8,"Daniele Baselli","ITA","M",1.82,70,"12-03-92","Manerbio","Atalanta","Torino","Italy",45.355777,10.13517
9,"Andrea Belotti","ITA","F",1.81,72,"20-12-93","Calcinate","Torino","Torino","Italy",45.619721,9.7988771
10,"","","",NA,NA,"","","","Torino","Italy",NA,NA
11,"Simone Zaza","ITA","F",1.86,84,"25-06-91","Policoro","Valencia","Torino","Italy",40.2104595,16.6763759
12,"","","",NA,NA,"","","","Torino","Italy",NA,NA
13,"","","",NA,NA,"","","","Torino","Italy",NA,NA
14,"","","",NA,NA,"","","","Torino","Italy",NA,NA
15,"Vittorio Parigini","ITA","M",1.8,73,"25-03-96","Moncalieri","None","Torino","Italy",45.0004614,7.6847543
16,"","","",NA,NA,"","","","Torino","Italy",NA,NA
17,"Wilfried Singo","CIV","D",1.9,79,"25-12-00","Grand-Béréby","AS Denguélé","Torino","Italy",4.6471378,-6.9253452
18,"Samir Ujkani","KVX","G",1.86,68,"05-07-88","Resnik","Rizespor","Torino","Italy",42.7748399,20.9713245
19,"","","",NA,NA,"","","","Torino","Italy",NA,NA
20,"Simone Edera","ITA","F",1.74,70,"09-01-97","Turin","None","Torino","Italy",45.0677551,7.6824892
21,"Alex Berenguer","ESP","M",1.75,73,"04-07-95","Pamplona","Osasuna","Torino","Italy",42.8184538,-1.6442556
22,"Vincenzo Millico","ITA","F",1.73,68,"12-08-00","Turin","Juventus","Torino","Italy",45.0677551,7.6824892
23,"Soualiho Meïté","FRA","M",1.87,80,"17-03-94","Paris","Monaco","Torino","Italy",48.8566969,2.3514616
24,"Simone Verdi","ITA","F",1.74,70,"12-07-92","Broni","Napoli","Torino","Italy",45.0654334,9.2628987
25,"Antonio Rosati","ITA","G",1.95,88,"26-06-83","Tivoli","Perugia","Torino","Italy",41.960922,12.798884
26,"","","",NA,NA,"","","","Torino","Italy",NA,NA
27,"","","",NA,NA,"","","","Torino","Italy",NA,NA
28,"","","",NA,NA,"","","","Torino","Italy",NA,NA
29,"Lorenzo De Silvestri","ITA","D",1.86,84,"23-05-88","Rome","Sampdoria","Torino","Italy",41.8933203,12.4829321
30,"Koffi Djidji","FRA","D",1.84,71,"30-11-92","Bagnolet","Nantes","Torino","Italy",48.8688199,2.4173658
31,"","","",NA,NA,"","","","Torino","Italy",NA,NA
32,"","","",NA,NA,"","","","Torino","Italy",NA,NA
33,"Nicolas Nkoulou","CMR","D",1.84,77,"27-03-90","Yaoundé","Lyon","Torino","Italy",3.8689867,11.5213344
34,"Ola Aina","NGA","D",1.84,82,"08-10-96","Southwark","Chelsea","Torino","Italy",51.5029222,-0.103458
35,"","","",NA,NA,"","","","Torino","Italy",NA,NA
36,"Bremer","BRA","D",1.88,80,"18-03-97","Itapitanga","Atlético Mineiro","Torino","Italy",-14.4213865,-39.5664662
37,"","","",NA,NA,"","","","Torino","Italy",NA,NA
38,"","","",NA,NA,"","","","Torino","Italy",NA,NA
39,"Salvatore Sirigu","ITA","G",1.92,80,"12-01-87","Nuoro","Paris St-Germain","Torino","Italy",40.1276831,9.3423227971427
40,"","","",NA,NA,"","","","Torino","Italy",NA,NA
80,"Michel Ndary Adopo","FRA","M",1.69,57,"19-07-00","Villeneuve-Saint-Georges","Torcy","Torino","Italy",48.7305272,2.44782
88,"Tomás Rincón","VEN","M",1.77,76,"13-01-88","San Cristóbal","Juventus","Torino","Italy",18.5200904,-70.2076771
1,"Juan Musso","ARG","G",1.91,93,"06-05-94","San Nicolás","Racing Club","Udinese","Italy",-33.3277089,-60.2165909
2,"","","",NA,NA,"","","","Udinese","Italy",NA,NA
3,"Samir","BRA","D",1.88,70,"05-12-94","Rio de Janeiro","Flamengo","Udinese","Italy",-22.9110137,-43.2093727
4,"Sebastian Prödl","AUT","D",1.96,97,"21-06-87","Graz","Watford","Udinese","Italy",47.0708678,15.4382786
5,"William Troost-Ekong","NGA","D",1.91,74,"01-09-93","Haarlem","Bursaspor","Udinese","Italy",52.38370575,4.64355969655963
6,"Seko Fofana","FRA","M",1.84,74,"07-05-95","Paris","Bastia","Udinese","Italy",48.8566969,2.3514616
7,"Stefano Okaka","ITA","F",1.86,82,"09-08-89","Castiglione del Lago","Watford","Udinese","Italy",43.127141,12.04525
8,"Mato Jajalo","CRO","M",1.82,81,"25-05-88","Jajce","Palermo","Udinese","Italy",44.3395173,17.2705155
9,"","","",NA,NA,"","","","Udinese","Italy",NA,NA
10,"Rodrigo De Paul","ARG","M",1.8,70,"24-05-94","Sarandí","Valencia","Udinese","Italy",-34.680758,-58.3463289
11,"Walace","BRA","M",1.78,75,"04-04-95","Salvador","Hannover 96","Udinese","Italy",13.8000382,-88.9140683
12,"Ken Sema","SWE","M",1.77,69,"30-09-93","Norrköping","Watford","Udinese","Italy",58.5909124,16.1903511
13,"","","",NA,NA,"","","","Udinese","Italy",NA,NA
14,"","","",NA,NA,"","","","Udinese","Italy",NA,NA
15,"Kevin Lasagna","ITA","F",1.81,80,"10-08-92","Suzzara","Carpi","Udinese","Italy",44.991873,10.74309
16,"","","",NA,NA,"","","","Udinese","Italy",NA,NA
17,"Bram Nuytinck","NED","D",1.9,80,"04-05-90","Malden","Anderlecht","Udinese","Italy",42.4250964,-71.066163
18,"Hidde ter Avest","NED","D",1.83,74,"20-05-97","Wierden","FC Twente","Udinese","Italy",52.35195215,6.56744842056736
19,"Jens Stryger Larsen","DEN","D",1.8,74,"21-02-91","Sakskøbing","Austria Vienna","Udinese","Italy",54.8010004,11.6418000970077
20,"","","",NA,NA,"","","","Udinese","Italy",NA,NA
21,"","","",NA,NA,"","","","Udinese","Italy",NA,NA
22,"","","",NA,NA,"","","","Udinese","Italy",NA,NA
23,"","","",NA,NA,"","","","Udinese","Italy",NA,NA
24,"","","",NA,NA,"","","","Udinese","Italy",NA,NA
25,"","","",NA,NA,"","","","Udinese","Italy",NA,NA
26,"","","",NA,NA,"","","","Udinese","Italy",NA,NA
27,"Samuele Perisan","ITA","G",1.92,84,"21-08-97","San Vito al Tagliamento","None","Udinese","Italy",45.9145042,12.8565956
28,"","","",NA,NA,"","","","Udinese","Italy",NA,NA
29,"","","",NA,NA,"","","","Udinese","Italy",NA,NA
30,"Ilija Nestorovski","MKD","F",1.82,76,"12-03-90","Prilep","Palermo","Udinese","Italy",41.3455945,21.5538227
31,"Manuel Gasparini","ITA","G",1.82,NA,"19-05-02","San Daniele del Friuli","None","Udinese","Italy",46.1600518,13.0106486
32,"","","",NA,NA,"","","","Udinese","Italy",NA,NA
33,"","","",NA,NA,"","","","Udinese","Italy",NA,NA
34,"","","",NA,NA,"","","","Udinese","Italy",NA,NA
35,"","","",NA,NA,"","","","Udinese","Italy",NA,NA
36,"","","",NA,NA,"","","","Udinese","Italy",NA,NA
37,"","","",NA,NA,"","","","Udinese","Italy",NA,NA
38,"Rolando Mandragora","ITA","M",1.83,76,"29-06-97","Naples","Juventus","Udinese","Italy",40.8359336,14.2487826
39,"","","",NA,NA,"","","","Udinese","Italy",NA,NA
40,"","","",NA,NA,"","","","Udinese","Italy",NA,NA
50,"Rodrigo Becão","BRA","D",1.91,79,"19-01-96","Salvador","Bahia","Udinese","Italy",13.8000382,-88.9140683
60,"Jan Kubala","CZE","M",1.89,NA,"05-05-00","","Baník Ostrava","Udinese","Italy",NA,NA
61,"Marco Ballarini","ITA","M",1.86,68,"28-03-01","Gorizia","None","Udinese","Italy",45.9441278,13.6252288
77,"Marvin Zeegelaar","NED","D",1.86,84,"12-08-90","Amsterdam","Watford","Udinese","Italy",52.3745403,4.89797550561798
87,"Sébastian De Maio","FRA","D",1.9,90,"05-03-87","Saint-Denis","Bologna","Udinese","Italy",48.935773,2.3580232
88,"Nícolas Andrade","BRA","G",1.9,85,"12-04-88","Colorado do Oeste","Verona","Udinese","Italy",-13.117431,-60.545428
91,"Lukasz Teodorczyk","POL","F",1.88,78,"03-06-91","Zuromin","Anderlecht","Udinese","Italy",53.0671703,19.9078353
1,"Marco Silvestri","ITA","G",1.91,80,"02-03-91","Castelnovo ne' Monti","Leeds U","Verona","Italy",44.4355622,10.4032946
2,"","","",NA,NA,"","","","Verona","Italy",NA,NA
3,"","","",NA,NA,"","","","Verona","Italy",NA,NA
4,"Miguel Veloso","POR","M",1.8,79,"11-05-86","Coimbra","Genoa","Verona","Italy",40.2109801,-8.4292057
5,"Marco Davide Faraoni","ITA","D",1.8,71,"25-10-91","Bracciano","Crotone","Verona","Italy",42.1010951,12.1738573
6,"Matteo Lovato","ITA","D",1.88,NA,"14-02-00","Monselice","Padova","Verona","Italy",45.2417684,11.7508534
7,"Emmanuel Agyemang-Badu","GHA","M",1.73,71,"02-12-90","Berekum","Udinese","Verona","Italy",7.450473,-2.5824981
8,"Valentin Eysseric","FRA","M",1.81,73,"25-03-92","Aix-en-Provence","Fiorentina","Verona","Italy",43.5298424,5.4474738
9,"Mariusz Stepinski","POL","F",1.83,62,"12-05-95","Sieradz","Chievo Verona","Verona","Italy",51.5942475,18.7378774
10,"Samuel Di Carmine","ITA","F",1.87,78,"29-09-88","Florence","Perugia","Verona","Italy",43.7698712,11.2555757
11,"Giampaolo Pazzini","ITA","F",1.8,77,"02-08-84","Pescia","Milan","Verona","Italy",43.90171,10.6897811
12,"","","",NA,NA,"","","","Verona","Italy",NA,NA
13,"Amir Rrahmani","KVX","D",1.92,83,"24-02-94","Prishtina","Napoli","Verona","Italy",42.6638771,21.1640849
14,"Valerio Verre","ITA","M",1.8,70,"11-01-94","Rome","Sampdoria","Verona","Italy",41.8933203,12.4829321
15,"Salvatore Bocchetti","ITA","D",1.86,81,"30-11-86","Naples","Spartak Moscow","Verona","Italy",40.8359336,14.2487826
16,"Fabio Borini","ITA","F",1.8,73,"29-03-91","Bentivoglio","Milan","Verona","Italy",44.6345741,11.4180033
17,"","","",NA,NA,"","","","Verona","Italy",NA,NA
18,"Lucas Felippe","BRA","M",1.78,NA,"03-05-00","São Paulo","Taboão da Serra","Verona","Italy",-23.5506507,-46.6333824
19,"Bogdan Jocic","SRB","M",1.81,67,"11-01-01","Belgrade","Crvena Zvezda","Verona","Italy",44.8178131,20.4568974
20,"Mattia Zaccagni","ITA","M",1.77,63,"16-06-95","Cesena","Bellaria","Verona","Italy",44.136352,12.2422442
21,"Koray Günter","GER","D",1.84,79,"16-08-94","Höxter","Genoa","Verona","Italy",51.7747369,9.3816877
22,"Alessandro Berardi","ITA","G",1.85,78,"16-01-91","Rome","Bari","Verona","Italy",41.8933203,12.4829321
23,"Federico Dimarco","ITA","D",1.82,75,"10-11-97","Milan","Internazionale","Verona","Italy",45.4668,9.1905
24,"Marash Kumbulla","ALB","D",1.85,78,"08-02-00","Peschiera del Garda","None","Verona","Italy",45.4389454,10.6920171
25,"Andrea Danzi","ITA","M",1.75,70,"25-02-99","San Martino Buon Albergo","None","Verona","Italy",45.421687,11.09689
26,"","","",NA,NA,"","","","Verona","Italy",NA,NA
27,"Pawel Dawidowicz","POL","M",1.89,80,"20-05-95","Olsztyn","Benfica","Verona","Italy",53.7766839,20.476507
28,"","","",NA,NA,"","","","Verona","Italy",NA,NA
29,"Eddy Salcedo","ITA","F",1.78,74,"01-10-01","Genoa","Internazionale","Verona","Italy",44.40726,8.9338624
30,"","","",NA,NA,"","","","Verona","Italy",NA,NA
31,"","","",NA,NA,"","","","Verona","Italy",NA,NA
32,"Matteo Pessina","ITA","M",1.87,75,"21-04-97","Monza","Atalanta","Verona","Italy",45.5834418,9.2735257
33,"Alan Empereur","BRA","D",1.86,82,"10-03-94","Ipatinga","Foggia","Verona","Italy",-19.4777807,-42.5270802
34,"Sofyan Amrabat","MAR","M",1.85,70,"21-08-96","Huizen","Fiorentina","Verona","Italy",52.29648445,5.24058204069026
35,"","","",NA,NA,"","","","Verona","Italy",NA,NA
36,"","","",NA,NA,"","","","Verona","Italy",NA,NA
37,"","","",NA,NA,"","","","Verona","Italy",NA,NA
38,"","","",NA,NA,"","","","Verona","Italy",NA,NA
39,"Destiny Udogie","ITA","D",1.78,NA,"28-11-02","Verona","None","Verona","Italy",45.4384958,10.9924122
40,"","","",NA,NA,"","","","Verona","Italy",NA,NA
77,"Dorian Ciezkowski","POL","G",1.87,73,"22-03-01","Kraków","Progres Kraków","Verona","Italy",50.0619474,19.9368564
88,"Darko Lazovic","SRB","M",1.81,66,"15-09-90","Cacak","Genoa","Verona","Italy",43.8913319,20.3501125
96,"Boris Radunovic","SRB","G",1.94,84,"26-05-96","Belgrade","Atalanta","Verona","Italy",44.8178131,20.4568974
98,"Claud Adjapong","ITA","D",1.8,74,"06-05-98","Modena","Sassuolo","Verona","Italy",44.5384728,10.9359608705307
